{"table":[{"county":"縣市","location":"地點","name":"廟銜","year":"現今廟址創建年代","regularYear":"","note":"備註"},{"county":"基隆市","location":"仁愛區","name":"慶安宮","year":"清治乾隆四十五年（1780年）","regularYear":"1780","note":""},{"county":"基隆市","location":"暖暖區","name":"安德宮","year":"清治嘉慶六年（1801年）","regularYear":"1801","note":""},{"county":"基隆市","location":"中正區","name":"社寮天后宮","year":"清治乾隆十二年\n（1747年）","regularYear":"1747","note":""},{"county":"基隆市","location":"中正區","name":"八斗子度天宮","year":"清治光緒六年（1880年）","regularYear":"1880","note":""},{"county":"臺北市","location":"松山區","name":"松山慈祐宮","year":"清乾隆十八年（1753年）","regularYear":"1753","note":""},{"county":"臺北市","location":"北投區","name":"關渡宮","year":"初期草創於明鄭永曆十五年(1661年) 正式建廟於清治康熙五十一年（1712年）[15]","regularYear":"1661","note":"1661年石興和尚自湄洲請來媽祖金身並建草篷祭祀[16]。"},{"county":"臺北市","location":"士林區","name":"慈諴宮","year":"清治嘉慶元年（1796年）","regularYear":"1796","note":"直轄市定古蹟"},{"county":"臺北市","location":"萬華區西門町","name":"台北天后宮","year":"清治乾隆十一年（1746年）","regularYear":"1746","note":""},{"county":"臺北市","location":"大同區","name":"大稻埕慈聖宮","year":"清治同治五年（1866年）","regularYear":"1866","note":""},{"county":"新北市","location":"萬里區","name":"鎮北宮[17]","year":"民國七十三年（1984年）","regularYear":"1984","note":""},{"county":"新北市","location":"瑞芳區","name":"瑞慈宮[18]","year":"民國七十一年（1982年）","regularYear":"1982","note":""},{"county":"新北市","location":"金山區","name":"金山慈護宮","year":"清治嘉慶十四年（1809年）","regularYear":"1809","note":""},{"county":"新北市","location":"貢寮區","name":"澳底仁和宮[19]","year":"咸豐四年（1854年）","regularYear":"1854","note":""},{"county":"新北市","location":"新莊區","name":"後港昭德宮[20]","year":"日治明治四十三年（清宣統二年、1910年）","regularYear":"1910","note":""},{"county":"新北市","location":"新莊區","name":"新莊慈祐宮","year":"清治雍正七年（1729年）","regularYear":"1729","note":"直轄市定古蹟"},{"county":"新北市","location":"八里區","name":"八里天后宮","year":"清治乾隆二十五年（1760年）","regularYear":"1760","note":""},{"county":"新北市","location":"淡水區","name":"淡水福佑宮","year":"清治乾隆四十七年（1782年）","regularYear":"1782","note":"直轄市定古蹟"},{"county":"新北市","location":"板橋區","name":"板橋慈惠宮","year":"清治同治十三年（1874年）","regularYear":"1874","note":""},{"county":"桃園市","location":"桃園區","name":"桃園慈護宮","year":"清治光緒二十三年（1897年）","regularYear":"1897","note":""},{"county":"桃園市","location":"桃園區","name":"桃園聖母宮","year":"","regularYear":"","note":""},{"county":"桃園市","location":"大溪區","name":"福安宮[21]","year":"日治昭和二年（1927年）","regularYear":"1927","note":""},{"county":"桃園市","location":"觀音區","name":"保障宮","year":"清治咸豐九年（1854年）","regularYear":"1854","note":"只要一炷通天香，就能拜眾神，全台獨一無二的設計，且廟宇建築格局特殊。"},{"county":"桃園市","location":"龜山區","name":"振天宮[22]","year":"民國六十四年乙卯十二月（1975年）","regularYear":"1975","note":""},{"county":"桃園市","location":"新屋區","name":"新屋天后宮","year":"清治道光六年（1826年）","regularYear":"1826","note":"建廟崇祀初建於清治道光六年是為「聖母祠」，直到清治光緒四年（1878年）才由黃吳水等30人各出穀一石做基金而創立天后宮。有一座全國第一高的青銅媽祖神像，高108公尺，重120噸。"},{"county":"桃園市","location":"蘆竹區","name":"龍德宮","year":"民國八十六年（1997年）","regularYear":"1997","note":"出巡謁祖全程吃素食完成八天的功德路，歷程四百多公里。"},{"county":"桃園市","location":"中壢區","name":"仁海宮","year":"清治同治九年（1870年）","regularYear":"1870","note":""},{"county":"新竹市","location":"香山區","name":"天后宮","year":"清治道光十五年（1835年）","regularYear":"1835","note":"臺灣最古老的媽祖廟之一，是當地漁民信仰中心。"},{"county":"新竹市","location":"北區","name":"長和宮","year":"清治乾隆七年（1742年）","regularYear":"1742","note":"湄洲祖廟史料記載，3尊神像中1尊「大媽」留在湄洲祖廟朝天閣正殿，惜已於文化大革命期間被毀；第2尊「二媽」流向南洋，不知去向；第3尊「三媽」則為今日新竹市長和宮的軟身真髮媽祖，稱「湄洲祖廟正三媽」；市定古蹟。"},{"county":"新竹市","location":"北區","name":"新竹內天后宮","year":"清治乾隆十三年（1748年）","regularYear":"1748","note":"新竹市歷史建築。"},{"county":"新竹縣","location":"湖口鄉","name":"顯聖宮[23]","year":"民國四十二年（1953年）","regularYear":"1953","note":""},{"county":"新竹縣","location":"竹北市","name":"竹北天后宮","year":"民國六十九年（1978年）","regularYear":"1978","note":""},{"county":"新竹縣","location":"芎林鄉","name":"五和宮","year":"嘉慶元年（西元1796年）","regularYear":"1796","note":""},{"county":"新竹縣","location":"新埔鎮","name":"與天宮","year":"民國二年（1914年）","regularYear":"1914","note":""},{"county":"苗栗縣","location":"後龍鎮","name":"慈雲宮","year":"清乾隆三十五年（1770年）","regularYear":"1770","note":""},{"county":"苗栗縣","location":"後龍鎮","name":"清海宮","year":"民國六十五年十月（1976年）","regularYear":"1976","note":""},{"county":"苗栗縣","location":"頭份市","name":"永貞宮","year":"清治咸豐三年（1853年）","regularYear":"1853","note":""},{"county":"苗栗縣","location":"竹南鎮","name":"慈裕宮","year":"清治道光十八年（1838年）","regularYear":"1838","note":"縣定古蹟為地方宗教中心。"},{"county":"苗栗縣","location":"竹南鎮","name":"龍鳳宮","year":"清治道光十六年（1836年）","regularYear":"1836","note":"於廟頂上的媽祖塑像，耗費三年，高達136臺尺（45公尺，12層樓），為世界最高的媽祖坐姿塑像；塑像內部則分為12層樓"},{"county":"苗栗縣","location":"通霄鎮","name":"白沙屯拱天宮","year":"清同治二年\n（1863年）","regularYear":"1863","note":"獲行政院文建會頒發證書指定為「國家重要民俗文化資產」[24][25]。"},{"county":"苗栗縣","location":"苑裡鎮","name":"房裡古城苑裡順天宮","year":"清治雍正二年（1724年）","regularYear":"1724","note":"苗栗海線最古老的媽祖廟宇。"},{"county":"苗栗縣","location":"苑裡鎮","name":"苑裡慈和宮","year":"清治康熙五十三年（1714年）","regularYear":"1714","note":"開基媽（香燈媽）入台三百年。"},{"county":"臺中市","location":"大甲區","name":"日南慈德宮[26]","year":"民國67年","regularYear":"","note":"乾隆46年(1781年)日南三庄媽由來據日南吳龍筆記載：「乾隆年間，日南劉銀章 大族，族人前往火炎山割取茅草，遭生番掠 人頭數十人，事後地方協議，庄民前往火炎山工 作，需有藤牌火槍隨隊，並求天上聖母保佑，三庄輪流值年頭家爐主制，此為日南三庄媽的由來。」，道光7年創立天上聖母會為今-日南三庄媽,未建廟前由三庄擲爐主輪奉"},{"county":"臺中市","location":"大甲區","name":"鎮瀾宮","year":"清雍正十年（1732年）","regularYear":"1732","note":""},{"county":"臺中市","location":"梧棲區","name":"大庄浩天宮","year":"創建於清雍正元年（1723年）","regularYear":"1723","note":"大肚中堡53庄境主，臺中市文化資產-歷史建築"},{"county":"臺中市","location":"梧棲區","name":"永天宮","year":"民國二十三年（1934年）","regularYear":"1934","note":""},{"county":"臺中市","location":"梧棲區","name":"朝元宮","year":"創建於清咸豐六年（1856年）","regularYear":"1856","note":""},{"county":"臺中市","location":"南屯區","name":"萬和宮","year":"清治雍正四年（1726年）","regularYear":"1726","note":"直轄市定古蹟"},{"county":"臺中市","location":"大肚區","name":"頂街萬興宮","year":"清治乾隆元年（1736年）[27]","regularYear":"1736","note":"大肚地區最古老的媽祖廟宇。"},{"county":"臺中市","location":"大肚區","name":"瑞安宮","year":"民國六十七年（1978年）[28]","regularYear":"1978","note":"大肚區位於大肚山上最著名的媽祖廟。因成為《花甲少年轉大人》一劇的劇情要素而聞名於臺灣。"},{"county":"臺中市","location":"沙鹿區","name":"朝興宮","year":"清雍正十年七月（1732年）[29]","regularYear":"1732","note":""},{"county":"臺中市","location":"豐原區","name":"慈濟宮","year":"清嘉慶十一年（1806年）五月[30]","regularYear":"1806","note":""},{"county":"臺中市","location":"豐原區","name":"廣福宮","year":"清治同治十二年（1873年）興建[31]，民國五十五年再次重建[32]","regularYear":"1873","note":""},{"county":"臺中市","location":"神岡區","name":"瞻雲宮","year":"清同治七年（1868年）[33]","regularYear":"1868","note":""},{"county":"臺中市","location":"大里區","name":"瑞和宮","year":"民國七十七年（1988年年）[34]","regularYear":"1988","note":""},{"county":"臺中市","location":"大里區","name":"振坤宮","year":"清道光十年（1830年）[35]","regularYear":"1830","note":""},{"county":"臺中市","location":"大里區","name":"新興宮","year":"清嘉慶二十年（1815年）[36]","regularYear":"1815","note":"被地方上稱為「八媽廟」。"},{"county":"臺中市","location":"大里區","name":"大里栈福興宮","year":"清嘉慶十六年（1811年）[37]","regularYear":"1811","note":""},{"county":"臺中市","location":"霧峰區","name":"霧峰南天宮","year":"清同治二年( 西元1863年 ) [38]","regularYear":"1863","note":""},{"county":"臺中市","location":"清水區","name":"壽天宮","year":"清治康熙四十八年（1709年）","regularYear":"1709","note":"清水地區最古老的媽祖廟宇。"},{"county":"臺中市","location":"北屯區","name":"南興宮","year":"清治道光二十九年（1849年）","regularYear":"1849","note":""},{"county":"臺中市","location":"北屯區","name":"上天宮","year":"民國五十年（1961年）","regularYear":"1961","note":"亦稱老五媽廟"},{"county":"臺中市","location":"東區","name":"樂成宮","year":"清乾隆五十五年（1790年）","regularYear":"1790","note":"直轄市定古蹟"},{"county":"臺中市","location":"中區","name":"萬春宮","year":"清乾隆五十四年(1789年)","regularYear":"1789","note":"藍興媽祖"},{"county":"臺中市","location":"大雅區","name":"大田心永安宮","year":"民國七十年辛酉年（1981年）","regularYear":"1981","note":""},{"county":"臺中市","location":"大雅區","name":"永興宮[39]","year":"清治道光二十七年（1847年）","regularYear":"1847","note":"地方稱為老四媽廟"},{"county":"臺中市","location":"石岡區","name":"石忠宮[40]","year":"民國六十五年（1976年）","regularYear":"1976","note":"係笨港口港口宮之分靈宮廟"},{"county":"彰化縣","location":"二林鎮","name":"仁和宮","year":"清乾隆元年（1736年）[41]","regularYear":"1736","note":"縣定古蹟"},{"county":"彰化縣","location":"伸港鄉","name":"福安宮","year":"建廟於康熙27年(西元1688)，於民國六年（1917年）修建","regularYear":"1688","note":""},{"county":"彰化縣","location":"二水鄉","name":"二水安德宮","year":"清治同治十一年（1872年）[42]","regularYear":"1872","note":""},{"county":"彰化縣","location":"北斗鎮","name":"北斗奠安宮","year":"清治康熙二十三年（1684年），遷建於清治嘉慶十一年（1806年）","regularYear":"1684","note":"與彰化南瑤宮、鹿港天后宮並列為彰化縣三大媽祖廟，亦稱彰南開基媽祖宮。"},{"county":"彰化縣","location":"彰化市","name":"彰化天后宮","year":"清治乾隆十三年（1748年）","regularYear":"1748","note":""},{"county":"彰化縣","location":"彰化市","name":"南瑤宮","year":"清治乾隆三年（1738年）","regularYear":"1738","note":"縣定古蹟"},{"county":"彰化縣","location":"花壇鄉","name":"明聖宮","year":"民國七十五年（1986年）","regularYear":"1986","note":"全台唯一武駕媽祖神像"},{"county":"彰化縣","location":"和美鎮","name":"糖聖宮","year":"民國九十七年（2008年）","regularYear":"2008","note":""},{"county":"彰化縣","location":"線西鄉","name":"寶安宮","year":"民國七十四年（1985年）","regularYear":"1985","note":""},{"county":"彰化縣","location":"鹿港鎮","name":"鹿港興安宮","year":"清康熙二十三年（1684年）","regularYear":"1684","note":"縣定古蹟，為鹿港第一古廟。"},{"county":"彰化縣","location":"鹿港鎮","name":"天后宮（舊祖宮）","year":"清雍正三年（1725年）","regularYear":"1725","note":"縣定古蹟"},{"county":"彰化縣","location":"鹿港鎮","name":"新祖宮[43]","year":"清乾隆五十三年（1788年）","regularYear":"1788","note":""},{"county":"彰化縣","location":"秀水鄉","name":"下崙天慈宮","year":"民國七十二年（1983年）","regularYear":"1983","note":""},{"county":"彰化縣","location":"芳苑鄉","name":"王功福海宮[44]","year":"清治嘉慶十七年（1812年）","regularYear":"1812","note":""},{"county":"彰化縣","location":"芳苑鄉","name":"白馬峰普天宮[45]","year":"清治咸豐九年（1859年）","regularYear":"1859","note":"為全台最大媽祖廟"},{"county":"彰化縣","location":"竹塘鄉","name":"廣安宮","year":"民國八十七年〈西元一九九八年〉","regularYear":"","note":""},{"county":"彰化縣","location":"埤頭鄉","name":"埤頭合興宮","year":"乾隆四十四年（1779年）","regularYear":"1779","note":""},{"county":"彰化縣","location":"溪湖鎮","name":"福安宮","year":"清治嘉慶十年（1804年）","regularYear":"1804","note":""},{"county":"彰化縣","location":"田尾鄉","name":"溪畔朝天宮","year":"民國六十九年（1980年）","regularYear":"1980","note":""},{"county":"彰化縣","location":"田中鎮","name":"田中乾德宮","year":"清治康熙三十六年（1697年）西元1919年遷址修建","regularYear":"1697","note":""},{"county":"彰化縣","location":"社頭鄉","name":"枋橋頭七十二庄天門宮","year":"清治乾隆二十年（1755年）","regularYear":"1755","note":"縣定古蹟\n武東堡.武西堡枋橋頭七十二庒媽祖信仰的中心寺廟"},{"county":"彰化縣","location":"社頭鄉","name":"舊社天門宮","year":"民國四十二年（1954年）於民國一零二年（2013年）重建","regularYear":"1954","note":"為枋橋頭七十二庄舊社庒舊二媽"},{"county":"彰化縣","location":"社頭鄉","name":"崙仔庄天門宮","year":"民國八十八年（1999年）","regularYear":"1999","note":"為枋橋頭七十二庄崙仔庒大媽"},{"county":"彰化縣","location":"溪州鄉","name":"溪州后天宮[46]","year":"民國五十二年（1963年）","regularYear":"1963","note":""},{"county":"彰化縣","location":"員林市","name":"福寧宮[47]","year":"日治大正十五年（1926年）","regularYear":"1926","note":""},{"county":"彰化縣","location":"永靖鄉","name":"甘澍宮","year":"民國二十五年（1936年）於民國八十七年（1996年）重建","regularYear":"1936","note":""},{"county":"彰化縣","location":"永靖鄉","name":"乾巽宮","year":"民國七十九年（1990年）","regularYear":"1990","note":""},{"county":"彰化縣","location":"永靖鄉","name":"舜天宮","year":"民國三十七年（1948年）","regularYear":"1948","note":""},{"county":"彰化縣","location":"大村鄉","name":"聖瑤宮","year":"民國八十二年（1993年）","regularYear":"1993","note":""},{"county":"彰化縣","location":"大村鄉","name":"大村慈聖宮","year":"民國一佰年（2011年）","regularYear":"2011","note":""},{"county":"彰化縣","location":"大城鄉","name":"聖德宮","year":"民國六十四年（1975年）","regularYear":"1975","note":""},{"county":"彰化縣","location":"埔心鄉","name":"五湖宮","year":"民國五十五年（1966年）","regularYear":"1966","note":""},{"county":"彰化縣","location":"埔鹽鄉","name":"四聖宮","year":"民國64年(西元1975年)","regularYear":"1975","note":""},{"county":"南投縣","location":"集集鎮","name":"廣盛宮","year":"清治乾隆五十八年（1793年）","regularYear":"1793","note":""},{"county":"南投縣","location":"竹山鎮","name":"連興宮","year":"清治乾隆二十一年（1756年）","regularYear":"1756","note":"縣定古蹟"},{"county":"南投縣","location":"名間鄉","name":"濁水福興宮","year":"清光緒三十三年（1907年）","regularYear":"1907","note":""},{"county":"南投縣","location":"南投市","name":"配天宮","year":"清嘉慶四年（1799年）","regularYear":"1799","note":""},{"county":"南投縣","location":"南投市","name":"慈善宮","year":"民國七十三年（1984年）","regularYear":"1984","note":""},{"county":"南投縣","location":"埔里鎮","name":"恆吉宮","year":"清治道光四年（1824年）","regularYear":"1824","note":""},{"county":"雲林縣","location":"北港鎮","name":"朝天宮","year":"清康熙三十三年（1694年）","regularYear":"1694","note":"國定古蹟"},{"county":"雲林縣","location":"崙背鄉","name":"奉天宮","year":"清治嘉慶二年（1797年）","regularYear":"1797","note":""},{"county":"雲林縣","location":"崙背鄉","name":"順天宮","year":"民國五十二年（1963年）","regularYear":"1963","note":""},{"county":"雲林縣","location":"二崙鄉","name":"儀天宮","year":"清治乾隆七年（1742年）","regularYear":"1742","note":""},{"county":"雲林縣","location":"二崙鄉","name":"安平宮","year":"清治同治八年（1869年）","regularYear":"1869","note":""},{"county":"雲林縣","location":"二崙鄉","name":"大義天后宮","year":"清治乾隆十四年（1749年）","regularYear":"1749","note":""},{"county":"雲林縣","location":"麥寮鄉","name":"拱範宮","year":"清治康熙二十四年（1685年）","regularYear":"1685","note":"國定古蹟"},{"county":"雲林縣","location":"古坑鄉","name":"東和廣濟宮","year":"清道光元年(1821年)","regularYear":"1821","note":""},{"county":"雲林縣","location":"大埤鄉","name":"泰安宮","year":"民國三十四年(1945年)","regularYear":"1945","note":""},{"county":"雲林縣","location":"褒忠鄉","name":"潮洋宮","year":"清治康熙55年(1716年)","regularYear":"1716","note":""},{"county":"雲林縣","location":"水林鄉","name":"蕃薯厝順天宮","year":"清治康熙七年(1668年)","regularYear":"1668","note":""},{"county":"雲林縣","location":"東勢鄉","name":"媽埔聖母宮","year":"民國八十六年(1997年)","regularYear":"1997","note":""},{"county":"雲林縣","location":"斗南鎮","name":"石龜溪天后宮[48]","year":"民國十四年（1925年）","regularYear":"1925","note":""},{"county":"雲林縣","location":"斗南鎮","name":"順安宮","year":"清治乾隆元年（1736年）","regularYear":"1736","note":""},{"county":"雲林縣","location":"土庫鎮","name":"順天宮","year":"清治道光十四年（1834年）","regularYear":"1834","note":"縣定古蹟"},{"county":"雲林縣","location":"土庫鎮","name":"馬光厝順安宮[49]","year":"民國二十四年（1935年）","regularYear":"1935","note":""},{"county":"雲林縣","location":"虎尾鎮","name":"福安宮","year":"民國50年(1961年)","regularYear":"1961","note":""},{"county":"雲林縣","location":"虎尾鎮","name":"持法媽祖宮","year":"民國81年(1992年)","regularYear":"1992","note":""},{"county":"雲林縣","location":"西螺鎮","name":"社口福天宮","year":"清治康熙五十二年（1713年）[50]","regularYear":"1713","note":"俗稱社口媽"},{"county":"雲林縣","location":"西螺鎮","name":"福興宮","year":"乾隆三十五年（1770年）[51]","regularYear":"1770","note":"俗稱太平媽"},{"county":"雲林縣","location":"西螺鎮","name":"吳厝朝興宮[52]","year":"民國五十二年（1963年）","regularYear":"1963","note":"俗稱吳厝媽"},{"county":"雲林縣","location":"西螺鎮","name":"埔心福心宮[53]","year":"清治光緒二十二年（1896年）","regularYear":"1896","note":"草廟太平媽祖"},{"county":"雲林縣","location":"莿桐鄉","name":"天瑤宮","year":"民國58年（1969年）","regularYear":"1969","note":""},{"county":"雲林縣","location":"台西鄉","name":"安海宮","year":"日治昭和十一年（1936年）","regularYear":"1936","note":""},{"county":"雲林縣","location":"四湖鄉","name":"鹿場福安宮","year":"民國六十九年（1980年）","regularYear":"1980","note":""},{"county":"雲林縣","location":"口湖鄉","name":"天台宮","year":"清治乾隆三十四年(1769年)","regularYear":"1769","note":""},{"county":"雲林縣","location":"斗六市","name":"斗六新興宮","year":"清治嘉慶元年（1796年）","regularYear":"1796","note":"稱開基斗六媽"},{"county":"雲林縣","location":"斗六市","name":"斗六門受天宮[54]","year":"康熙末年（1722年）","regularYear":"1722","note":""},{"county":"雲林縣","location":"斗六市","name":"石榴長和宮","year":"清乾隆二十一年（1756年）民國八十七年改建（1998年）","regularYear":"1756","note":"稱斑鳩媽"},{"county":"嘉義市","location":"東區","name":"朝天宮","year":"清治乾隆二十三年（1758年）","regularYear":"1758","note":"臺灣建宮年代最早的溫陵媽祖廟"},{"county":"嘉義市","location":"東區","name":"奉天宮","year":"民國73年（1984年）","regularYear":"1984","note":""},{"county":"嘉義市","location":"東區","name":"天后宮","year":"民國57年（1968年）","regularYear":"1968","note":"嘉義天后宮是山上天后宮的第二個分香宮"},{"county":"嘉義市","location":"東區","name":"天玄宮","year":"民國72年（1983年）","regularYear":"1983","note":""},{"county":"嘉義市","location":"東區","name":"順天宮","year":"民國68年（1979年）","regularYear":"1979","note":""},{"county":"嘉義市","location":"東區","name":"南順宮","year":"民國47年（1958年）","regularYear":"1958","note":""},{"county":"嘉義市","location":"西區","name":"遊天宮","year":"民國35年（1946年）","regularYear":"1946","note":"俗稱菜園仔媽"},{"county":"嘉義市","location":"西區","name":"伏龍宮","year":"民國40年（1951年）","regularYear":"1951","note":""},{"county":"嘉義市","location":"西區","name":"南遊宮","year":"民國35年（1946年）","regularYear":"1946","note":""},{"county":"嘉義市","location":"西區","name":"配南宮","year":"民國55年（1966年）","regularYear":"1966","note":""},{"county":"嘉義縣","location":"民雄鄉","name":"慶誠宮[55]","year":"清嘉慶十四年(西元1809年)","regularYear":"1809","note":""},{"county":"嘉義縣","location":"水上鄉","name":"璿宿上天宮","year":"清乾隆二年(西元1737年)","regularYear":"1737","note":""},{"county":"嘉義縣","location":"布袋鎮","name":"魍港太聖宮","year":"民國六十一年（1972年）","regularYear":"1972","note":"宮內奉祀為臺灣第一尊榮獲行政院教育部鑑定為明末雕刻作品的媽祖聖像－魍港媽祖[56]"},{"county":"嘉義縣","location":"布袋鎮","name":"新吉庄聖天宮","year":"清治治乾隆十五年（1750年）","regularYear":"1750","note":""},{"county":"嘉義縣","location":"布袋鎮","name":"龍江庄龍天宮","year":"民國一百零一年（2012年）","regularYear":"2012","note":""},{"county":"嘉義縣","location":"東石鄉","name":"港口宮","year":"清治康熙二十三年（1684年）","regularYear":"1684","note":""},{"county":"嘉義縣","location":"太保市","name":"後潭鎮福宮[57]","year":"創建於清康熙四十年五月）","regularYear":"","note":"縣定古蹟"},{"county":"嘉義縣","location":"朴子市","name":"朴子配天宮","year":"清康熙二十六年（1687年）","regularYear":"1687","note":"縣定古蹟"},{"county":"嘉義縣","location":"新港鄉","name":"長天宮","year":"清治雍正十二年（1734年）","regularYear":"1734","note":""},{"county":"嘉義縣","location":"新港鄉","name":"奉天宮","year":"清治嘉慶十六年（1811年）","regularYear":"1811","note":"縣定古蹟"},{"county":"嘉義縣","location":"新港鄉","name":"溪北六興宮","year":"清治道光十九年（1839年）","regularYear":"1839","note":"縣定古蹟"},{"county":"嘉義縣","location":"新港鄉","name":"笨港天后宮","year":"清治康熙五十二年（1713年）創建，日治明治三十年（1897年）地震廟毀，民國九十一年（2002年）大殿入火，民國一百年（2011年）重建竣工[58][59][60]。","regularYear":"1713","note":""},{"county":"嘉義縣","location":"六腳鄉","name":"糖廠配天宮（原稱副配天宮）","year":"日治大正十年（1921年）[61]","regularYear":"1921","note":""},{"county":"嘉義縣","location":"六腳鄉","name":"護安宮","year":"清治光緒五年（1879年）","regularYear":"1879","note":""},{"county":"臺南市","location":"南化區","name":"天后宮[62]","year":"清治康熙三十七年（1698年）","regularYear":"1698","note":""},{"county":"臺南市","location":"永康區","name":"鹽行天后宮","year":"清康熙三十五年（1696年）","regularYear":"1696","note":""},{"county":"臺南市","location":"後壁區","name":"下茄苳泰安宮","year":"清治康熙二十三年（1684年）","regularYear":"1684","note":""},{"county":"臺南市","location":"善化區","name":"善化慶安宮","year":"清治嘉慶十五年（1810年）","regularYear":"1810","note":"直轄市定古蹟"},{"county":"臺南市","location":"善化區","name":"茄拔天后宮","year":"明鄭永曆十五年（1661年）","regularYear":"1661","note":""},{"county":"臺南市","location":"下營區","name":"茅港尾堡天后宮[63]","year":"清治康熙五十二年（1713年）[64]","regularYear":"1713","note":""},{"county":"臺南市","location":"山上區","name":"苦瓜寮朝天宮","year":"清治光緒十九年（1893年）","regularYear":"1893","note":""},{"county":"臺南市","location":"山上區","name":"天后宮","year":"清光緒六年（1879年）","regularYear":"1879","note":""},{"county":"臺南市","location":"麻豆區","name":"仁厚宮","year":"清治乾隆二十三年（1758年）","regularYear":"1758","note":""},{"county":"臺南市","location":"鹽水區","name":"月港護庇宮","year":"護庇宮原本是福德祠，建於明天啟元年（1621年）清治康熙五十五年（1716年）擇地重建天后宮(護庇宮)","regularYear":"1621","note":"明天啟3年(1623)，鹽水當地糖郊「崇興行」從大陸福建湄州朝天閣迎來一尊媽祖(即今所奉祀的開基三媽，又稱糖郊媽)，併入福德祠合祀，並改為媽祖祠。"},{"county":"臺南市","location":"新營區","name":"鐵線橋通濟宮","year":"大清康熙中葉","regularYear":"","note":""},{"county":"臺南市","location":"西港區","name":"玉勅慶安宮","year":"清康熙五十一年（1712年）","regularYear":"1712","note":""},{"county":"臺南市","location":"七股區","name":"三股龍德宮","year":"清光緒六年（1880年）","regularYear":"1880","note":""},{"county":"臺南市","location":"中西區","name":"大天后宮","year":"明鄭永曆十八年（1664年）","regularYear":"1664","note":"國定古蹟"},{"county":"臺南市","location":"中西區","name":"媽祖樓天后宮","year":"清治乾隆二十年（1755年）","regularYear":"1755","note":""},{"county":"臺南市","location":"中西區","name":"三郊鎮港海安宮","year":"清治乾隆五十三年（1788年）[註 4]","regularYear":"1788","note":""},{"county":"臺南市","location":"中西區","name":"四聯境金安宮","year":"清治嘉慶十四年（1809年）[65]","regularYear":"1809","note":""},{"county":"臺南市","location":"中西區","name":"三郊營仔腳朝興宮溫陵媽廟","year":"清治嘉慶二十二年（1817年）[66]","regularYear":"1817","note":"分靈自泉州天后宮，因泉州古稱溫陵，故名為「溫陵媽廟」。民國四十六年（1957年）遷至現址。"},{"county":"臺南市","location":"中西區","name":"銀同祖廟","year":"清治道光二十二年（1842年）[67]","regularYear":"1842","note":""},{"county":"臺南市","location":"中西區","name":"檨仔林朝興宮馬兵營保和宮","year":"清治咸豐八年（1858年）[68]","regularYear":"1858","note":""},{"county":"臺南市","location":"北區","name":"開基天后宮","year":"明鄭永曆十七年（1663年）","regularYear":"1663","note":"直轄市定古蹟"},{"county":"臺南市","location":"南區","name":"鹽埕天后宮","year":"清乾隆廿三年（1758年）或卅三年（1768年）","regularYear":"1758","note":"主祀天上聖母，配祀武惠尊王，過去附近居民常經由廟後的「帆港」將鹽場產出的鹽運往安平，故此廟亦稱為「帆港天后宮」。該廟為台南鹽埕地區的公廟"},{"county":"臺南市","location":"安南區","name":"正統鹿耳門聖母廟","year":"1918年[69]","regularYear":"1918","note":"土城香亦稱土城仔香，由祀奉天上聖母媽祖的土城聖母廟所舉行。正統鹿耳門聖母廟舊名保安宮，早期屬「西港香」刈香。民國五十年（西元1961年），自西港香脫離而自行辦理的刈香活動，乃五大香中最晚形成的地區。「南瀛五大香」中的「土城香」，每三年舉行一次刈香儀式[70][71]。"},{"county":"臺南市","location":"安南區","name":"鹿耳門天后宮[72]","year":"1947年","regularYear":"1947","note":""},{"county":"臺南市","location":"安平區","name":"安平天后宮","year":"清治康熙五年（1668年）","regularYear":"1668","note":""},{"county":"臺南市","location":"大內區","name":"內庄朝天宮","year":"民國101年（2012年）","regularYear":"2012","note":""},{"county":"高雄市","location":"旗津區","name":"旗津天后宮","year":"清治康熙十二年（1673年）","regularYear":"1673","note":"直轄市定古蹟"},{"county":"高雄市","location":"楠梓區","name":"楠梓天后宮（原稱楠和宮）[73]","year":"清治乾隆二十九年（1764年）","regularYear":"1764","note":"直轄市定古蹟"},{"county":"高雄市","location":"旗山區","name":"天后宮","year":"清治嘉慶二十一年（1816年）","regularYear":"1816","note":"直轄市定古蹟"},{"county":"高雄市","location":"燕巢區","name":"角宿天后宮","year":"清治康熙六年（1667年）","regularYear":"1667","note":""},{"county":"高雄市","location":"鳳山區","name":"龍成宮","year":"清治光緒十二年（1886年）","regularYear":"1886","note":""},{"county":"高雄市","location":"鼓山區","name":"內惟龍目井龍泉宮","year":"清治朝乾隆年間","regularYear":"","note":""},{"county":"高雄市","location":"左營區","name":"豐穀宮","year":"大正十三年（1924年）","regularYear":"1924","note":"民國初年北港朝天宮南巡至左營時，正三媽降駕指示要留在左營濟世，於是便留下正三媽令旗，之後左營庄信徒雕刻天上聖母金身，原令旗火化後入神其中，而此尊神像即是豐穀宮開基天上聖母"},{"county":"高雄市","location":"茄萣區","name":"下茄萣金鑾宮","year":"清治乾隆四十二年（1777年）","regularYear":"1777","note":""},{"county":"高雄市","location":"茄萣區","name":"頂茄萣賜福宮[74]","year":"清治乾隆二十三年（1758年）[75]","regularYear":"1758","note":""},{"county":"高雄市","location":"橋頭區","name":"鳳橋宮","year":"清治雍正三年（1725年）","regularYear":"1725","note":""},{"county":"屏東縣","location":"屏東市","name":"慈鳳宮","year":"清治乾隆二年（1737年）","regularYear":"1737","note":""},{"county":"屏東縣","location":"里港鄉","name":"雙慈宮","year":"清治乾隆十三年（1784年）[76]","regularYear":"1784","note":""},{"county":"屏東縣","location":"新園鄉","name":"新惠宮","year":"清治乾隆20年（1755年）","regularYear":"1755","note":""},{"county":"屏東縣","location":"內埔鄉","name":"六堆天后宮","year":"清治嘉慶八年（1803年）","regularYear":"1803","note":"縣定古蹟"},{"county":"屏東縣","location":"東港鎮","name":"朝隆宮","year":"清治雍正二年（1724年）","regularYear":"1724","note":""},{"county":"屏東縣","location":"萬丹鄉","name":"萬丹萬惠宮","year":"清治乾隆二十一年（1756年）","regularYear":"1756","note":""},{"county":"屏東縣","location":"長治鄉","name":"長治天后宮","year":"日治大正三年（1914年）","regularYear":"1914","note":""},{"county":"宜蘭縣","location":"蘇澳鎮","name":"南天宮","year":"民國三十九年（1950年）","regularYear":"1950","note":""},{"county":"宜蘭縣","location":"蘇澳鎮","name":"進安宮","year":"民國七十七年（1988年）","regularYear":"1988","note":""},{"county":"宜蘭縣","location":"五結鄉","name":"永安宮","year":"清治道光六年（1826年）","regularYear":"1826","note":"縣定古蹟"},{"county":"宜蘭縣","location":"頭城鎮","name":"頭城慶元宮","year":"清治嘉慶元年（1796年）","regularYear":"1796","note":""},{"county":"宜蘭縣","location":"宜蘭市","name":"昭應宮","year":"清治嘉慶十三年（1808年）","regularYear":"1808","note":"縣定古蹟"},{"county":"宜蘭縣","location":"羅東鎮","name":"震安宮","year":"清治道光十七年（1837年）[77]","regularYear":"1837","note":""},{"county":"花蓮縣","location":"花蓮市","name":"慈天宮","year":"民國三十八年（1949年）","regularYear":"1949","note":""},{"county":"台東縣","location":"台東市","name":"台東天后宮","year":"清治光緒十六年（1890年）","regularYear":"1890","note":"縣定古蹟"},{"county":"澎湖縣","location":"馬公市","name":"澎湖天后宮","year":"明萬曆三十二年（1604年）","regularYear":"1604","note":"國定古蹟，為全台年代最早的天后宮。具有潮州風格，異於大多數臺灣寺廟的閩南風格。"},{"county":"縣市","location":"地點","name":"廟銜","year":"現今廟址創建年代","regularYear":"","note":"備註"},{"county":"金門縣","location":"金湖鎮","name":"順濟宮","year":"北宋徽宗宣和年","regularYear":"","note":"料羅順濟宮興建於明代，從廟中碑文記載，建廟時間要往古推算到北宋徽宗宣和年間，是金門最古老的媽祖廟。"},{"county":"連江縣","location":"南竿鄉","name":"馬祖天后宮","year":"","regularYear":"","note":"為媽祖衣冠冢和靈穴的所在地。"},{"county":"連江縣","location":"南竿鄉","name":"鐵板天后宮","year":"","regularYear":"","note":"供奉國內罕見之「少女媽祖」(少女面容)神像。"}]}