{"table":[{"county":"基隆市","location":"仁愛區","name":"慶安宮","year":"清治乾隆四十五年（1780年）","regularYear":"1780","note":"","googleName":"基隆慶安宮","address":"200台灣基隆市仁愛區忠二路1號","gps":{"lat":25.129624,"lng":121.7407783}},{"county":"基隆市","location":"暖暖區","name":"安德宮","year":"清治嘉慶六年（1801年）","regularYear":"1801","note":"","googleName":"安德宮","address":"205台灣基隆市暖暖區暖暖街63號","gps":{"lat":25.1020914,"lng":121.7385868}},{"county":"基隆市","location":"中正區","name":"社寮天后宮","year":"清治乾隆十二年\n（1747年）","regularYear":"1747","note":"","googleName":"天后宮","address":"202台灣基隆市中正區和一路84巷16號","gps":{"lat":25.1558154,"lng":121.766576}},{"county":"基隆市","location":"中正區","name":"八斗子度天宮","year":"清治光緒六年（1880年）","regularYear":"1880","note":"","googleName":"度天宮","address":"202台灣基隆市中正區八斗街96巷32-1號","gps":{"lat":25.143856,"lng":121.797217}},{"county":"臺北市","location":"松山區","name":"松山慈祐宮","year":"清乾隆十八年（1753年）","regularYear":"1753","note":"","googleName":"松山慈祐宮","address":"105台灣台北市松山區八德路四段761號","gps":{"lat":25.051182,"lng":121.577696}},{"county":"臺北市","location":"北投區","name":"關渡宮","year":"初期草創於明鄭永曆十五年(1661年) 正式建廟於清治康熙五十一年（1712年）[15]","regularYear":"1661","note":"1661年石興和尚自湄洲請來媽祖金身並建草篷祭祀[16]。","googleName":"關渡宮","address":"112台灣台北市北投區知行路360號","gps":{"lat":25.117703,"lng":121.463954}},{"county":"臺北市","location":"士林區","name":"慈諴宮","year":"清治嘉慶元年（1796年）","regularYear":"1796","note":"直轄市定古蹟","googleName":"士林慈諴宮","address":"111台灣台北市士林區大南路84號","gps":{"lat":25.0895932,"lng":121.5247073}},{"county":"臺北市","location":"萬華區西門町","name":"台北天后宮","year":"清治乾隆十一年（1746年）","regularYear":"1746","note":"","googleName":"台北天后宮","address":"10844台灣台北市萬華區成都路51號","gps":{"lat":25.0427953,"lng":121.5063267}},{"county":"臺北市","location":"大同區","name":"大稻埕慈聖宮","year":"清治同治五年（1866年）","regularYear":"1866","note":"","googleName":"大稻埕慈聖宮天上聖母","address":"103台灣台北市大同區保安街49巷17號","gps":{"lat":25.060246,"lng":121.512184}},{"county":"新北市","location":"萬里區","name":"鎮北宮[17]","year":"民國七十三年（1984年）","regularYear":"1984","note":"","googleName":"鎮北宮","address":"207台灣新北市萬里區玉田路4之2號","gps":{"lat":25.183854,"lng":121.6805169}},{"county":"新北市","location":"瑞芳區","name":"瑞慈宮[18]","year":"民國七十一年（1982年）","regularYear":"1982","note":"","googleName":"瑞慈宮","address":"224台灣新北市瑞芳區三爪子坑路106巷190號","gps":{"lat":25.1032734,"lng":121.8087186}},{"county":"新北市","location":"金山區","name":"金山慈護宮","year":"清治嘉慶十四年（1809年）","regularYear":"1809","note":"","googleName":"金包里慈護宮","address":"208台灣新北市金山區金包里街16號","gps":{"lat":25.2209209,"lng":121.640279}},{"county":"新北市","location":"貢寮區","name":"澳底仁和宮[19]","year":"咸豐四年（1854年）","regularYear":"1854","note":"","googleName":"仁和宮","address":"228台灣新北市貢寮區仁和路9號","gps":{"lat":25.0517293,"lng":121.9229996}},{"county":"新北市","location":"新莊區","name":"後港昭德宮[20]","year":"日治明治四十三年（清宣統二年、1910年）","regularYear":"1910","note":"","googleName":"後港昭德宮","address":"242台灣新北市新莊區後港二路18號","gps":{"lat":25.02363,"lng":121.42231}},{"county":"新北市","location":"新莊區","name":"新莊慈祐宮","year":"清治雍正七年（1729年）","regularYear":"1729","note":"直轄市定古蹟","googleName":"新莊慈祐宮","address":"242台灣新北市新莊區新莊路218號","gps":{"lat":25.0343822,"lng":121.4528834}},{"county":"新北市","location":"八里區","name":"八里天后宮","year":"清治乾隆二十五年（1760年）","regularYear":"1760","note":"","googleName":"開台天后宮","address":"249台灣新北市八里區龍米路二段191號","gps":{"lat":25.1581631,"lng":121.4338562}},{"county":"新北市","location":"淡水區","name":"淡水福佑宮","year":"清治乾隆四十七年（1782年）","regularYear":"1782","note":"直轄市定古蹟","googleName":"淡水福佑宮","address":"251台灣新北市淡水區中正路200號","gps":{"lat":25.1702342,"lng":121.4399206}},{"county":"新北市","location":"板橋區","name":"板橋慈惠宮","year":"清治同治十三年（1874年）","regularYear":"1874","note":"","googleName":"板橋慈惠宮","address":"220台灣新北市板橋區挹秀里1鄰府中路81號","gps":{"lat":25.0093895,"lng":121.4574112}},{"county":"桃園市","location":"桃園區","name":"桃園慈護宮","year":"清治光緒二十三年（1897年）","regularYear":"1897","note":"","googleName":"桃園慈護宮","address":"330台灣桃園市桃園區復興路275號","gps":{"lat":24.9888201,"lng":121.3066966}},{"county":"桃園市","location":"桃園區","name":"桃園聖母宮","year":"","regularYear":"","note":"","googleName":"桃園聖母宮","address":"330台灣桃園市桃園區南通路10號","gps":{"lat":25.0107023,"lng":121.3067437}},{"county":"桃園市","location":"大溪區","name":"福安宮[21]","year":"日治昭和二年（1927年）","regularYear":"1927","note":"","googleName":"大溪三層福安宮","address":"335台灣桃園市大溪區三層老街36號","gps":{"lat":24.8586216,"lng":121.2958106}},{"county":"桃園市","location":"觀音區","name":"保障宮","year":"清治咸豐九年（1854年）","regularYear":"1854","note":"只要一炷通天香，就能拜眾神，全台獨一無二的設計，且廟宇建築格局特殊。","googleName":"保障宮","address":"328台灣桃園市觀音區大觀路一段579號","gps":{"lat":25.0485409,"lng":121.1442919}},{"county":"桃園市","location":"龜山區","name":"振天宮[22]","year":"民國六十四年乙卯十二月（1975年）","regularYear":"1975","note":"","googleName":"振天宮","address":"333台灣桃園市龜山區振興路1278巷29號","gps":{"lat":25.02923,"lng":121.377525}},{"county":"桃園市","location":"新屋區","name":"新屋天后宮","year":"清治道光六年（1826年）","regularYear":"1826","note":"建廟崇祀初建於清治道光六年是為「聖母祠」，直到清治光緒四年（1878年）才由黃吳水等30人各出穀一石做基金而創立天后宮。有一座全國第一高的青銅媽祖神像，高108公尺，重120噸。","googleName":"新屋天后宮","address":"327台灣桃園市新屋區笨港里2鄰10號","gps":{"lat":24.975718,"lng":121.026471}},{"county":"桃園市","location":"蘆竹區","name":"龍德宮","year":"民國八十六年（1997年）","regularYear":"1997","note":"出巡謁祖全程吃素食完成八天的功德路，歷程四百多公里。","googleName":"桃園龍德宮","address":"33847台灣桃園市蘆竹區富國路一段2巷1號","gps":{"lat":25.0271118,"lng":121.2780401}},{"county":"桃園市","location":"中壢區","name":"仁海宮","year":"清治同治九年（1870年）","regularYear":"1870","note":"","googleName":"中壢仁海宮","address":"320台灣桃園市中壢區延平路198號","gps":{"lat":24.9623401,"lng":121.2279406}},{"county":"新竹市","location":"香山區","name":"天后宮","year":"清治道光十五年（1835年）","regularYear":"1835","note":"臺灣最古老的媽祖廟之一，是當地漁民信仰中心。","googleName":"香山天后宮","address":"300台灣新竹市香山區中華路五段420巷191號","gps":{"lat":24.7692794,"lng":120.9145292}},{"county":"新竹市","location":"北區","name":"長和宮","year":"清治乾隆七年（1742年）","regularYear":"1742","note":"湄洲祖廟史料記載，3尊神像中1尊「大媽」留在湄洲祖廟朝天閣正殿，惜已於文化大革命期間被毀；第2尊「二媽」流向南洋，不知去向；第3尊「三媽」則為今日新竹市長和宮的軟身真髮媽祖，稱「湄洲祖廟正三媽」；市定古蹟。","googleName":"新竹長和宮","address":"300台灣新竹市北區北門街135號","gps":{"lat":24.8085595,"lng":120.9649126}},{"county":"新竹市","location":"北區","name":"新竹內天后宮","year":"清治乾隆十三年（1748年）","regularYear":"1748","note":"新竹市歷史建築。","googleName":"新竹內天后宮","address":"300台灣新竹市北區西門街184號","gps":{"lat":24.8007408,"lng":120.9620853}},{"county":"新竹縣","location":"湖口鄉","name":"顯聖宮[23]","year":"民國四十二年（1953年）","regularYear":"1953","note":"","googleName":"顯聖宮","address":"303台灣新竹縣湖口鄉民生街120號","gps":{"lat":24.9029415,"lng":121.0478312}},{"county":"新竹縣","location":"竹北市","name":"竹北天后宮","year":"民國六十九年（1978年）","regularYear":"1978","note":"","googleName":"竹北天后宮","address":"302台灣新竹縣竹北市中正東路328巷29號","gps":{"lat":24.836965,"lng":121.011351}},{"county":"新竹縣","location":"芎林鄉","name":"五和宮","year":"嘉慶元年（西元1796年）","regularYear":"1796","note":"","googleName":"五龍五和宮","address":"307台灣新竹縣芎林鄉富林路一段138巷23弄19號","gps":{"lat":24.7363218,"lng":121.1199559}},{"county":"新竹縣","location":"新埔鎮","name":"與天宮","year":"民國二年（1914年）","regularYear":"1914","note":"","googleName":"與天宮","address":"305台灣新竹縣新埔鎮中正路666號","gps":{"lat":24.827855,"lng":121.073541}},{"county":"苗栗縣","location":"後龍鎮","name":"慈雲宮","year":"清乾隆三十五年（1770年）","regularYear":"1770","note":"","googleName":"慈雲宮","address":"356台灣苗栗縣後龍鎮三民路120號","gps":{"lat":24.6145427,"lng":120.7868858}},{"county":"苗栗縣","location":"後龍鎮","name":"清海宮","year":"民國六十五年十月（1976年）","regularYear":"1976","note":"","googleName":"清海宮","address":"356台灣苗栗縣後龍鎮南港里14鄰114-1號","gps":{"lat":24.5993895,"lng":120.7231755}},{"county":"苗栗縣","location":"頭份市","name":"永貞宮","year":"清治咸豐三年（1853年）","regularYear":"1853","note":"","googleName":"永貞宮","address":"351台灣苗栗縣頭份市田寮里13鄰134號","gps":{"lat":24.6793511,"lng":120.8851586}},{"county":"苗栗縣","location":"竹南鎮","name":"慈裕宮","year":"清治道光十八年（1838年）","regularYear":"1838","note":"縣定古蹟為地方宗教中心。","googleName":"竹南慈裕宮","address":"350台灣苗栗縣竹南鎮民生路7號","gps":{"lat":24.6824924,"lng":120.8637477}},{"county":"苗栗縣","location":"竹南鎮","name":"龍鳳宮","year":"清治道光十六年（1836年）","regularYear":"1836","note":"於廟頂上的媽祖塑像，耗費三年，高達136臺尺（45公尺，12層樓），為世界最高的媽祖坐姿塑像；塑像內部則分為12層樓","googleName":"竹南后厝龍鳳宫","address":"350台灣苗栗縣竹南鎮龍安街69號","gps":{"lat":24.6936505,"lng":120.866488}},{"county":"苗栗縣","location":"通霄鎮","name":"白沙屯拱天宮","year":"清同治二年\n（1863年）","regularYear":"1863","note":"獲行政院文建會頒發證書指定為「國家重要民俗文化資產」[24][25]。","googleName":"白沙屯拱天宮","address":"357台灣苗栗縣通霄鎮白東里2鄰8號","gps":{"lat":24.5713807,"lng":120.709162}},{"county":"苗栗縣","location":"苑裡鎮","name":"房裡古城苑裡順天宮","year":"清治雍正二年（1724年）","regularYear":"1724","note":"苗栗海線最古老的媽祖廟宇。","googleName":"順天宮","address":"358台灣苗栗縣苑裡鎮房裡里1鄰南房26號","gps":{"lat":24.4351915,"lng":120.6466195}},{"county":"苗栗縣","location":"苑裡鎮","name":"苑裡慈和宮","year":"清治康熙五十三年（1714年）","regularYear":"1714","note":"開基媽（香燈媽）入台三百年。","googleName":"慈和宮","address":"358台灣苗栗縣苑裡鎮中山路305號","gps":{"lat":24.4474099,"lng":120.6543266}},{"county":"臺中市","location":"大甲區","name":"日南慈德宮[26]","year":"民國67年","regularYear":"","note":"乾隆46年(1781年)日南三庄媽由來據日南吳龍筆記載：「乾隆年間，日南劉銀章 大族，族人前往火炎山割取茅草，遭生番掠 人頭數十人，事後地方協議，庄民前往火炎山工 作，需有藤牌火槍隨隊，並求天上聖母保佑，三庄輪流值年頭家爐主制，此為日南三庄媽的由來。」，道光7年創立天上聖母會為今-日南三庄媽,未建廟前由三庄擲爐主輪奉","googleName":"日南慈德宮天上聖母三庄媽","address":"43769台灣台中市大甲區通天路152號","gps":{"lat":24.3810608,"lng":120.6562424}},{"county":"臺中市","location":"大甲區","name":"鎮瀾宮","year":"清雍正十年（1732年）","regularYear":"1732","note":"","googleName":"大甲鎮瀾宮","address":"437台灣台中市大甲區順天路158號","gps":{"lat":24.345234,"lng":120.623571}},{"county":"臺中市","location":"梧棲區","name":"大庄浩天宮","year":"創建於清雍正元年（1723年）","regularYear":"1723","note":"大肚中堡53庄境主，臺中市文化資產-歷史建築","googleName":"大庄浩天宮","address":"43545台灣台中市梧棲區中央路一段784號","gps":{"lat":24.2457934,"lng":120.5397046}},{"county":"臺中市","location":"梧棲區","name":"永天宮","year":"民國二十三年（1934年）","regularYear":"1934","note":"","googleName":"鴨母寮永天宮","address":"435台灣台中市梧棲區永興路一段649號","gps":{"lat":24.225036,"lng":120.5339754}},{"county":"臺中市","location":"梧棲區","name":"朝元宮","year":"創建於清咸豐六年（1856年）","regularYear":"1856","note":"","googleName":"朝元宮","address":"435台灣台中市梧棲區梧棲路140號","gps":{"lat":24.256484,"lng":120.5296657}},{"county":"臺中市","location":"南屯區","name":"萬和宮","year":"清治雍正四年（1726年）","regularYear":"1726","note":"直轄市定古蹟","googleName":"萬和宮","address":"408台灣台中市南屯區萬和路一段51號","gps":{"lat":24.1377871,"lng":120.6392534}},{"county":"臺中市","location":"大肚區","name":"頂街萬興宮","year":"清治乾隆元年（1736年）[27]","regularYear":"1736","note":"大肚地區最古老的媽祖廟宇。","googleName":"大肚萬興宮","address":"432台灣台中市大肚區榮華街154號","gps":{"lat":24.1593108,"lng":120.5449835}},{"county":"臺中市","location":"大肚區","name":"瑞安宮","year":"民國六十七年（1978年）[28]","regularYear":"1978","note":"大肚區位於大肚山上最著名的媽祖廟。因成為《花甲少年轉大人》一劇的劇情要素而聞名於臺灣。","googleName":"大肚瑞安宮","address":"432台灣台中市大肚區瑞井路51巷7號","gps":{"lat":24.1630331,"lng":120.5731457}},{"county":"臺中市","location":"沙鹿區","name":"朝興宮","year":"清雍正十年七月（1732年）[29]","regularYear":"1732","note":"","googleName":"朝興宮(媽祖)","address":"433台灣沙鹿區和平街18號","gps":{"lat":24.2386291,"lng":120.56117}},{"county":"臺中市","location":"豐原區","name":"慈濟宮","year":"清嘉慶十一年（1806年）五月[30]","regularYear":"1806","note":"","googleName":"豐原慈濟宮-葫蘆墩媽祖","address":"420台灣台中市豐原區中正路179號","gps":{"lat":24.2516322,"lng":120.719027}},{"county":"臺中市","location":"豐原區","name":"廣福宮","year":"清治同治十二年（1873年）興建[31]，民國五十五年再次重建[32]","regularYear":"1873","note":"","googleName":"廣福宮","address":"420台灣台中市豐原區","gps":{"lat":24.243978,"lng":120.729164}},{"county":"臺中市","location":"神岡區","name":"瞻雲宮","year":"清同治七年（1868年）[33]","regularYear":"1868","note":"","googleName":"神岡瞻雲宮","address":"429台灣台中市神岡區三社路53巷159號","gps":{"lat":24.2345737,"lng":120.6952801}},{"county":"臺中市","location":"大里區","name":"瑞和宮","year":"民國七十七年（1988年年）[34]","regularYear":"1988","note":"","googleName":"大里瑞和宮","address":"412台灣台中市大里區瑞和街36號","gps":{"lat":24.086176,"lng":120.703716}},{"county":"臺中市","location":"大里區","name":"振坤宮","year":"清道光十年（1830年）[35]","regularYear":"1830","note":"","googleName":"仁化村振坤宮管理委員會","address":"412台灣大里區仁化路518號","gps":{"lat":24.096343,"lng":120.701867}},{"county":"臺中市","location":"大里區","name":"新興宮","year":"清嘉慶二十年（1815年）[36]","regularYear":"1815","note":"被地方上稱為「八媽廟」。","googleName":"新興宮","address":"412台灣大里區新仁路二段162號","gps":{"lat":24.112077,"lng":120.6930641}},{"county":"臺中市","location":"大里區","name":"大里栈福興宮","year":"清嘉慶十六年（1811年）[37]","regularYear":"1811","note":"","googleName":"福興宮","address":"412台灣台中市大里區福興街1號","gps":{"lat":24.0980616,"lng":120.6774845}},{"county":"臺中市","location":"霧峰區","name":"霧峰南天宮","year":"清同治二年( 西元1863年 ) [38]","regularYear":"1863","note":"","googleName":"霧峰南天宮","address":"413台灣台中市霧峰區萊園路57巷2號","gps":{"lat":24.0633789,"lng":120.702047}},{"county":"臺中市","location":"清水區","name":"壽天宮","year":"清治康熙四十八年（1709年）","regularYear":"1709","note":"清水地區最古老的媽祖廟宇。","googleName":"壽天宮","address":"436台灣台中市清水區西寧路16號","gps":{"lat":24.2709767,"lng":120.5746631}},{"county":"臺中市","location":"北屯區","name":"南興宮","year":"清治道光二十九年（1849年）","regularYear":"1849","note":"","googleName":"南興宮","address":"406台灣台中市北屯區舊社巷43號","gps":{"lat":24.1805815,"lng":120.7062255}},{"county":"臺中市","location":"北屯區","name":"上天宮","year":"民國五十年（1961年）","regularYear":"1961","note":"亦稱老五媽廟","googleName":"北屯上天宮管理委員會","address":"406台灣北屯區太原路三段405號","gps":{"lat":24.165359,"lng":120.698301}},{"county":"臺中市","location":"東區","name":"樂成宮","year":"清乾隆五十五年（1790年）","regularYear":"1790","note":"直轄市定古蹟","googleName":"台中樂成宮","address":"401台灣台中市東區旱溪街48號","gps":{"lat":24.1407017,"lng":120.6980189}},{"county":"臺中市","location":"中區","name":"萬春宮","year":"清乾隆五十四年(1789年)","regularYear":"1789","note":"藍興媽祖","googleName":"萬春宮","address":"400台灣台中市中區成功路212號","gps":{"lat":24.1421416,"lng":120.6816538}},{"county":"臺中市","location":"大雅區","name":"永興宮[39]","year":"清治道光二十七年（1847年）","regularYear":"1847","note":"地方稱為老四媽廟","googleName":"大雅永興宮天上聖母老四媽","address":"428台灣台中市大雅區大雅路37號","gps":{"lat":24.2240115,"lng":120.6489463}},{"county":"臺中市","location":"石岡區","name":"石忠宮[40]","year":"民國六十五年（1976年）","regularYear":"1976","note":"係笨港口港口宮之分靈宮廟","googleName":"石忠宮天上聖母","address":"422台灣台中市石岡區頭坪巷21號","gps":{"lat":24.2705779,"lng":120.7768005}},{"county":"彰化縣","location":"二林鎮","name":"仁和宮","year":"清乾隆元年（1736年）[41]","regularYear":"1736","note":"縣定古蹟","googleName":"仁和宮","address":"526台灣彰化縣二林鎮中正路58號","gps":{"lat":23.8990566,"lng":120.3680779}},{"county":"彰化縣","location":"伸港鄉","name":"福安宮","year":"建廟於康熙27年(西元1688)，於民國六年（1917年）修建","regularYear":"1688","note":"","googleName":"伸港福安宮","address":"509台灣彰化縣伸港鄉福安路5號","gps":{"lat":24.162517,"lng":120.4883947}},{"county":"彰化縣","location":"二水鄉","name":"二水安德宮","year":"清治同治十一年（1872年）[42]","regularYear":"1872","note":"","googleName":"二八水安德宮天上聖母","address":"530台灣彰化縣二水鄉員集路三段631號","gps":{"lat":23.809932,"lng":120.615602}},{"county":"彰化縣","location":"北斗鎮","name":"北斗奠安宮","year":"清治康熙二十三年（1684年），遷建於清治嘉慶十一年（1806年）","regularYear":"1684","note":"與彰化南瑤宮、鹿港天后宮並列為彰化縣三大媽祖廟，亦稱彰南開基媽祖宮。","googleName":"北斗奠安宮 東螺開基祖廟","address":"521台灣彰化縣北斗鎮斗苑路一段120號","gps":{"lat":23.8723367,"lng":120.5253807}},{"county":"彰化縣","location":"彰化市","name":"彰化天后宮","year":"清治乾隆十三年（1748年）","regularYear":"1748","note":"","googleName":"天后宮","address":"500台灣彰化縣彰化市永樂街11-19號","gps":{"lat":24.0763647,"lng":120.5436676}},{"county":"彰化縣","location":"彰化市","name":"南瑤宮","year":"清治乾隆三年（1738年）","regularYear":"1738","note":"縣定古蹟","googleName":"彰化南瑤宮","address":"500台灣彰化縣彰化市南瑤路43號","gps":{"lat":24.0676865,"lng":120.538547}},{"county":"彰化縣","location":"花壇鄉","name":"明聖宮","year":"民國七十五年（1986年）","regularYear":"1986","note":"全台唯一武駕媽祖神像","googleName":"白沙坑明聖宮天上聖母","address":"503台灣彰化縣花壇鄉溪南街66巷16號","gps":{"lat":24.041506,"lng":120.545437}},{"county":"彰化縣","location":"和美鎮","name":"糖聖宮","year":"民國九十七年（2008年）","regularYear":"2008","note":"","googleName":"和美糖聖宮","address":"508台灣彰化縣和美鎮糖友一街67號","gps":{"lat":24.1085651,"lng":120.534197}},{"county":"彰化縣","location":"線西鄉","name":"寶安宮","year":"民國七十四年（1985年）","regularYear":"1985","note":"","googleName":"線西寶安宮天上聖母","address":"507台灣彰化縣線西鄉塭仔村130號","gps":{"lat":24.1263275,"lng":120.454925}},{"county":"彰化縣","location":"鹿港鎮","name":"鹿港興安宮","year":"清康熙二十三年（1684年）","regularYear":"1684","note":"縣定古蹟，為鹿港第一古廟。","googleName":"鹿港興安宮","address":"505台灣彰化縣鹿港鎮長興里興化巷64號","gps":{"lat":24.0522502,"lng":120.4356929}},{"county":"彰化縣","location":"鹿港鎮","name":"天后宮（舊祖宮）","year":"清雍正三年（1725年）","regularYear":"1725","note":"縣定古蹟","googleName":"敕建天后宮(新祖宮)","address":"505台灣彰化縣鹿港鎮埔頭街96號","gps":{"lat":24.0582136,"lng":120.4313684}},{"county":"彰化縣","location":"鹿港鎮","name":"新祖宮[43]","year":"清乾隆五十三年（1788年）","regularYear":"1788","note":"","googleName":"敕建天后宮(新祖宮)","address":"505台灣彰化縣鹿港鎮埔頭街96號","gps":{"lat":24.0582136,"lng":120.4313684}},{"county":"彰化縣","location":"秀水鄉","name":"下崙天慈宮","year":"民國七十二年（1983年）","regularYear":"1983","note":"","googleName":"天慈宮","address":"504台灣彰化縣秀水鄉民生街206號","gps":{"lat":24.001744,"lng":120.506195}},{"county":"彰化縣","location":"芳苑鄉","name":"王功福海宮[44]","year":"清治嘉慶十七年（1812年）","regularYear":"1812","note":"","googleName":"王功福海宮","address":"528台灣彰化縣芳苑鄉芳漢路王功段2號","gps":{"lat":23.9532401,"lng":120.3345254}},{"county":"彰化縣","location":"芳苑鄉","name":"白馬峰普天宮[45]","year":"清治咸豐九年（1859年）","regularYear":"1859","note":"為全台最大媽祖廟","googleName":"普天宮","address":"528台灣彰化縣芳苑鄉芳漢路芳二段161巷100號","gps":{"lat":23.9291478,"lng":120.316697}},{"county":"彰化縣","location":"竹塘鄉","name":"廣安宮","year":"民國八十七年〈西元一九九八年〉","regularYear":"","note":"","googleName":"廣安宮","address":"525台灣彰化縣竹塘鄉東陽路二段249號","gps":{"lat":23.8477049,"lng":120.3813689}},{"county":"彰化縣","location":"埤頭鄉","name":"埤頭合興宮","year":"乾隆四十四年（1779年）","regularYear":"1779","note":"","googleName":"埤頭合興宮 炸彈媽祖","address":"523台灣彰化縣埤頭鄉斗苑西路329號","gps":{"lat":23.892085,"lng":120.4576624}},{"county":"彰化縣","location":"溪湖鎮","name":"福安宮","year":"清治嘉慶十年（1804年）","regularYear":"1804","note":"","googleName":"溪湖福安宮-溪湖媽","address":"514台灣彰化縣溪湖鎮信善街1號","gps":{"lat":23.9638946,"lng":120.4793187}},{"county":"彰化縣","location":"田尾鄉","name":"溪畔朝天宮","year":"民國六十九年（1980年）","regularYear":"1980","note":"","googleName":"朝天宮","address":"522台灣彰化縣田尾鄉","gps":{"lat":23.9047058,"lng":120.5378098}},{"county":"彰化縣","location":"田中鎮","name":"田中乾德宮","year":"清治康熙三十六年（1697年）西元1919年遷址修建","regularYear":"1697","note":"","googleName":"田中 乾德宮","address":"520台灣彰化縣田中鎮員集路二段471號","gps":{"lat":23.8606164,"lng":120.5849693}},{"county":"彰化縣","location":"社頭鄉","name":"枋橋頭七十二庄天門宮","year":"清治乾隆二十年（1755年）","regularYear":"1755","note":"縣定古蹟\n武東堡.武西堡枋橋頭七十二庒媽祖信仰的中心寺廟","googleName":"社頭枋橋頭天門宮","address":"511台灣彰化縣社頭鄉橋頭村媽祖廟街43號","gps":{"lat":23.9176758,"lng":120.5828147}},{"county":"彰化縣","location":"社頭鄉","name":"舊社天門宮","year":"民國四十二年（1954年）於民國一零二年（2013年）重建","regularYear":"1954","note":"為枋橋頭七十二庄舊社庒舊二媽","googleName":"社頭舊社天門宮","address":"511台灣彰化縣社頭鄉中央巷9-8號","gps":{"lat":23.9004541,"lng":120.5950995}},{"county":"彰化縣","location":"社頭鄉","name":"崙仔庄天門宮","year":"民國八十八年（1999年）","regularYear":"1999","note":"為枋橋頭七十二庄崙仔庒大媽","googleName":"社頭崙仔庄天門宮","address":"511台灣彰化縣社頭鄉員集路一段689號","gps":{"lat":23.8902464,"lng":120.5873049}},{"county":"彰化縣","location":"溪州鄉","name":"溪州后天宮[46]","year":"民國五十二年（1963年）","regularYear":"1963","note":"","googleName":"溪州后天宮-天上聖母","address":"524台灣彰化縣溪州鄉東光路20號","gps":{"lat":23.8538397,"lng":120.4952219}},{"county":"彰化縣","location":"員林市","name":"福寧宮[47]","year":"日治大正十五年（1926年）","regularYear":"1926","note":"","googleName":"員林福寧宮","address":"510台灣彰化縣員林市中山路二段26號","gps":{"lat":23.9600297,"lng":120.570743}},{"county":"彰化縣","location":"永靖鄉","name":"甘澍宮","year":"民國二十五年（1936年）於民國八十七年（1996年）重建","regularYear":"1936","note":"","googleName":"甘澍宮","address":"512台灣彰化縣永靖鄉","gps":{"lat":23.910856,"lng":120.5486889}},{"county":"彰化縣","location":"永靖鄉","name":"乾巽宮","year":"民國七十九年（1990年）","regularYear":"1990","note":"","googleName":"乾巽宮","address":"512台灣彰化縣永靖鄉浮圳路490號","gps":{"lat":23.916288,"lng":120.5619063}},{"county":"彰化縣","location":"永靖鄉","name":"舜天宮","year":"民國三十七年（1948年）","regularYear":"1948","note":"","googleName":"舜天宮","address":"512台灣彰化縣永靖鄉獨鰲路一段139巷2號","gps":{"lat":23.918678,"lng":120.5314459}},{"county":"彰化縣","location":"大村鄉","name":"聖瑤宮","year":"民國八十二年（1993年）","regularYear":"1993","note":"","googleName":"聖瑤宮","address":"515台灣彰化縣大村鄉聖瑤東路79號","gps":{"lat":23.998061,"lng":120.577745}},{"county":"彰化縣","location":"大村鄉","name":"大村慈聖宮","year":"民國一佰年（2011年）","regularYear":"2011","note":"","googleName":"大村慈聖宮","address":"515台灣彰化縣大村鄉中正西路39號207 巷 號","gps":{"lat":23.9874234,"lng":120.557651}},{"county":"彰化縣","location":"大城鄉","name":"聖德宮","year":"民國六十四年（1975年）","regularYear":"1975","note":"","googleName":"聖德宮","address":"527台灣彰化縣大城鄉中正路21號","gps":{"lat":23.8784449,"lng":120.3089889}},{"county":"彰化縣","location":"埔心鄉","name":"五湖宮","year":"民國五十五年（1966年）","regularYear":"1966","note":"","googleName":"五湖宮","address":"513台灣彰化縣埔心鄉員鹿路二段520號","gps":{"lat":23.9527427,"lng":120.5400989}},{"county":"彰化縣","location":"埔鹽鄉","name":"四聖宮","year":"民國64年(西元1975年)","regularYear":"1975","note":"","googleName":"四聖宮","address":"516台灣彰化縣埔鹽鄉新水村四鄰5-18號","gps":{"lat":23.9870444,"lng":120.4464174}},{"county":"南投縣","location":"集集鎮","name":"廣盛宮","year":"清治乾隆五十八年（1793年）","regularYear":"1793","note":"","googleName":"廣盛宮","address":"552台灣南投縣集集鎮集集街128號","gps":{"lat":23.8278811,"lng":120.7816046}},{"county":"南投縣","location":"竹山鎮","name":"連興宮","year":"清治乾隆二十一年（1756年）","regularYear":"1756","note":"縣定古蹟","googleName":"竹山連興宮","address":"557台灣南投縣竹山鎮下橫街28號","gps":{"lat":23.7562546,"lng":120.6852205}},{"county":"南投縣","location":"名間鄉","name":"濁水福興宮","year":"清光緒三十三年（1907年）","regularYear":"1907","note":"","googleName":"福興宮","address":"551台灣南投縣名間鄉福興巷15號","gps":{"lat":23.830785,"lng":120.711915}},{"county":"南投縣","location":"南投市","name":"配天宮","year":"清嘉慶四年（1799年）","regularYear":"1799","note":"","googleName":"南投配天宮","address":"54057台灣南投縣南投市中山街65號","gps":{"lat":23.9065127,"lng":120.685997}},{"county":"南投縣","location":"南投市","name":"慈善宮","year":"民國七十三年（1984年）","regularYear":"1984","note":"","googleName":"南投慈善宮","address":"540台灣南投縣南投市工業路3之15號","gps":{"lat":23.9190607,"lng":120.665468}},{"county":"南投縣","location":"埔里鎮","name":"恆吉宮","year":"清治道光四年（1824年）","regularYear":"1824","note":"","googleName":"恆吉宮","address":"545台灣南投縣埔里鎮南興街367號","gps":{"lat":23.9651855,"lng":120.9621339}},{"county":"雲林縣","location":"北港鎮","name":"朝天宮","year":"清康熙三十三年（1694年）","regularYear":"1694","note":"國定古蹟","googleName":"北港朝天宮","address":"651台灣雲林縣北港鎮中山路178號","gps":{"lat":23.5676568,"lng":120.3046284}},{"county":"雲林縣","location":"崙背鄉","name":"奉天宮","year":"清治嘉慶二年（1797年）","regularYear":"1797","note":"","googleName":"崙背奉天宮","address":"637台灣雲林縣崙背鄉中山路280號","gps":{"lat":23.7607268,"lng":120.3537192}},{"county":"雲林縣","location":"崙背鄉","name":"順天宮","year":"民國五十二年（1963年）","regularYear":"1963","note":"","googleName":"順天宮","address":"637台灣雲林縣崙背鄉","gps":{"lat":23.7622999,"lng":120.336866}},{"county":"雲林縣","location":"二崙鄉","name":"儀天宮","year":"清治乾隆七年（1742年）","regularYear":"1742","note":"","googleName":"儀天宮康樂台","address":"649台灣雲林縣二崙鄉","gps":{"lat":23.816957,"lng":120.4063797}},{"county":"雲林縣","location":"二崙鄉","name":"安平宮","year":"清治同治八年（1869年）","regularYear":"1869","note":"","googleName":"安平宮","address":"649台灣雲林縣二崙鄉安平路65號號","gps":{"lat":23.8043754,"lng":120.3942438}},{"county":"雲林縣","location":"二崙鄉","name":"大義天后宮","year":"清治乾隆十四年（1749年）","regularYear":"1749","note":"","googleName":"大義崙天后宮","address":"649台灣雲林縣二崙鄉大義路27-1號","gps":{"lat":23.7862437,"lng":120.3993751}},{"county":"雲林縣","location":"麥寮鄉","name":"拱範宮","year":"清治康熙二十四年（1685年）","regularYear":"1685","note":"國定古蹟","googleName":"國定古蹟麥寮拱範宮","address":"638台灣雲林縣麥寮鄉中正路3號","gps":{"lat":23.7482862,"lng":120.2553613}},{"county":"雲林縣","location":"古坑鄉","name":"東和廣濟宮","year":"清道光元年(1821年)","regularYear":"1821","note":"","googleName":"廣濟宮","address":"646台灣雲林縣古坑鄉宮前路32號","gps":{"lat":23.6822211,"lng":120.5694449}},{"county":"雲林縣","location":"大埤鄉","name":"泰安宮","year":"民國三十四年(1945年)","regularYear":"1945","note":"","googleName":"泰安宮","address":"631台灣雲林縣大埤鄉嘉興路65號","gps":{"lat":23.6493367,"lng":120.4538497}},{"county":"雲林縣","location":"褒忠鄉","name":"潮洋宮","year":"清治康熙55年(1716年)","regularYear":"1716","note":"","googleName":"潮洋宮","address":"634台灣雲林縣褒忠鄉潮厝村31號","gps":{"lat":23.7142972,"lng":120.3369809}},{"county":"雲林縣","location":"水林鄉","name":"蕃薯厝順天宮","year":"清治康熙七年(1668年)","regularYear":"1668","note":"","googleName":"水林鄉蕃薯厝順天宮","address":"652台灣雲林縣水林鄉蕃薯村102號","gps":{"lat":23.5414838,"lng":120.2237512}},{"county":"雲林縣","location":"東勢鄉","name":"媽埔聖母宮","year":"民國八十六年(1997年)","regularYear":"1997","note":"","googleName":"聖母宮","address":"635台灣雲林縣東勢鄉月眉村媽埔20號","gps":{"lat":23.679653,"lng":120.298979}},{"county":"雲林縣","location":"斗南鎮","name":"石龜溪天后宮[48]","year":"民國十四年（1925年）","regularYear":"1925","note":"","googleName":"石龜溪天后宮","address":"630台灣雲林縣斗南鎮四維路50號","gps":{"lat":23.6394554,"lng":120.483263}},{"county":"雲林縣","location":"斗南鎮","name":"順安宮","year":"清治乾隆元年（1736年）","regularYear":"1736","note":"","googleName":"順安宮","address":"630台灣雲林縣斗南鎮長安路一段126之1號","gps":{"lat":23.675381,"lng":120.473335}},{"county":"雲林縣","location":"土庫鎮","name":"順天宮","year":"清治道光十四年（1834年）","regularYear":"1834","note":"縣定古蹟","googleName":"土庫順天宮","address":"63341台灣雲林縣土庫鎮中正路109號","gps":{"lat":23.6764551,"lng":120.3907122}},{"county":"雲林縣","location":"土庫鎮","name":"馬光厝順安宮[49]","year":"民國二十四年（1935年）","regularYear":"1935","note":"","googleName":"馬光順安宮","address":"633台灣雲林縣土庫鎮馬光路62號","gps":{"lat":23.7055679,"lng":120.35759}},{"county":"雲林縣","location":"虎尾鎮","name":"福安宮","year":"民國50年(1961年)","regularYear":"1961","note":"","googleName":"虎尾福安宮","address":"632台灣雲林縣虎尾鎮新生五路13號","gps":{"lat":23.706619,"lng":120.436217}},{"county":"雲林縣","location":"虎尾鎮","name":"持法媽祖宮","year":"民國81年(1992年)","regularYear":"1992","note":"","googleName":"持法媽祖宮","address":"632台灣雲林縣虎尾鎮頂溪里西園46號","gps":{"lat":23.7387495,"lng":120.460963}},{"county":"雲林縣","location":"西螺鎮","name":"社口福天宮","year":"清治康熙五十二年（1713年）[50]","regularYear":"1713","note":"俗稱社口媽","googleName":"雲林西螺福天宮-天上聖母(社口媽)","address":"648台灣雲林縣西螺鎮社口路88號","gps":{"lat":23.788303,"lng":120.440057}},{"county":"雲林縣","location":"西螺鎮","name":"福興宮","year":"乾隆三十五年（1770年）[51]","regularYear":"1770","note":"俗稱太平媽","googleName":"西螺福興宮","address":"648台灣雲林縣西螺鎮延平路180號","gps":{"lat":23.8013469,"lng":120.4605772}},{"county":"雲林縣","location":"西螺鎮","name":"吳厝朝興宮[52]","year":"民國五十二年（1963年）","regularYear":"1963","note":"俗稱吳厝媽","googleName":"朝興宮宴客廳","address":"648台灣雲林縣西螺鎮中正橋52-9號雲林縣西螺鎮吳厝里52-9號","gps":{"lat":23.744161,"lng":120.4227707}},{"county":"雲林縣","location":"西螺鎮","name":"埔心福心宮[53]","year":"清治光緒二十二年（1896年）","regularYear":"1896","note":"草廟太平媽祖","googleName":"西螺鎮福心宮","address":"648台灣雲林縣西螺鎮安定里11鄰182號","gps":{"lat":23.8009584,"lng":120.4359544}},{"county":"雲林縣","location":"莿桐鄉","name":"天瑤宮","year":"民國58年（1969年）","regularYear":"1969","note":"","googleName":"天瑤宮","address":"637台灣雲林縣崙背鄉3-12","gps":{"lat":23.747097,"lng":120.3591128}},{"county":"雲林縣","location":"台西鄉","name":"安海宮","year":"日治昭和十一年（1936年）","regularYear":"1936","note":"","googleName":"安海宮","address":"636台灣雲林縣台西鄉民權路6巷2號","gps":{"lat":23.700192,"lng":120.200424}},{"county":"雲林縣","location":"四湖鄉","name":"鹿場福安宮","year":"民國六十九年（1980年）","regularYear":"1980","note":"","googleName":"四湖鄉福安宮","address":"654台灣雲林縣四湖鄉下鹿場路","gps":{"lat":23.6140507,"lng":120.2350856}},{"county":"雲林縣","location":"口湖鄉","name":"天台宮","year":"清治乾隆三十四年(1769年)","regularYear":"1769","note":"","googleName":"台子天台宮","address":"653台灣雲林縣口湖鄉台興路86號","gps":{"lat":23.5604128,"lng":120.1405451}},{"county":"雲林縣","location":"斗六市","name":"斗六新興宮","year":"清治嘉慶元年（1796年）","regularYear":"1796","note":"稱開基斗六媽","googleName":"新興宮","address":"640台灣雲林縣斗六市中正路60號","gps":{"lat":23.7087753,"lng":120.5441494}},{"county":"雲林縣","location":"斗六市","name":"斗六門受天宮[54]","year":"康熙末年（1722年）","regularYear":"1722","note":"","googleName":"斗六門受天宮-天上聖母","address":"640台灣雲林縣斗六市莊敬路55號","gps":{"lat":23.7035446,"lng":120.55025}},{"county":"雲林縣","location":"斗六市","name":"石榴長和宮","year":"清乾隆二十一年（1756年）民國八十七年改建（1998年）","regularYear":"1756","note":"稱斑鳩媽","googleName":"長和宮","address":"640台灣雲林縣斗六市長和路15號","gps":{"lat":23.7246673,"lng":120.5769388}},{"county":"嘉義市","location":"東區","name":"朝天宮","year":"清治乾隆二十三年（1758年）","regularYear":"1758","note":"臺灣建宮年代最早的溫陵媽祖廟","googleName":"嘉義市朝天宫（温陵媽廟）","address":"600台灣嘉義市西區延平街276號","gps":{"lat":23.47673,"lng":120.448678}},{"county":"嘉義市","location":"東區","name":"奉天宮","year":"民國73年（1984年）","regularYear":"1984","note":"","googleName":"奉天宮","address":"600台灣嘉義市東區文化路956號","gps":{"lat":23.5035539,"lng":120.4391789}},{"county":"嘉義市","location":"東區","name":"天后宮","year":"民國57年（1968年）","regularYear":"1968","note":"嘉義天后宮是山上天后宮的第二個分香宮","googleName":"嘉義天后宮","address":"600台灣嘉義市東區林森東路113號","gps":{"lat":23.4874682,"lng":120.4568466}},{"county":"嘉義市","location":"東區","name":"天玄宮","year":"民國72年（1983年）","regularYear":"1983","note":"","googleName":"天玄宮","address":"600台灣嘉義市東區體育路11號","gps":{"lat":23.4717413,"lng":120.4601806}},{"county":"嘉義市","location":"東區","name":"順天宮","year":"民國68年（1979年）","regularYear":"1979","note":"","googleName":"順天宮","address":"600台灣嘉義市西區林森西路452 巷 5 號","gps":{"lat":23.4815508,"lng":120.4436396}},{"county":"嘉義市","location":"東區","name":"南順宮","year":"民國47年（1958年）","regularYear":"1958","note":"","googleName":"財團法人嘉義市南順宮","address":"600台灣嘉義市東區興業東路399號","gps":{"lat":23.4698593,"lng":120.458865}},{"county":"嘉義市","location":"西區","name":"遊天宮","year":"民國35年（1946年）","regularYear":"1946","note":"俗稱菜園仔媽","googleName":"遊天宮","address":"600台灣嘉義市西區民族路750號","gps":{"lat":23.475405,"lng":120.4416933}},{"county":"嘉義市","location":"西區","name":"伏龍宮","year":"民國40年（1951年）","regularYear":"1951","note":"","googleName":"伏龍宮天上聖母","address":"600台灣嘉義市西區博愛路二段396號","gps":{"lat":23.4765659,"lng":120.4351483}},{"county":"嘉義市","location":"西區","name":"南遊宮","year":"民國35年（1946年）","regularYear":"1946","note":"","googleName":"財團法人南遊宮","address":"600台灣嘉義市西區康樂街257號","gps":{"lat":23.4740503,"lng":120.4404973}},{"county":"嘉義市","location":"西區","name":"配南宮","year":"民國55年（1966年）","regularYear":"1966","note":"","googleName":"嘉義配南宮報恩塔","address":"600台灣嘉義市西區垂楊路573號","gps":{"lat":23.4727414,"lng":120.4405021}},{"county":"嘉義縣","location":"民雄鄉","name":"慶誠宮[55]","year":"清嘉慶十四年(西元1809年)","regularYear":"1809","note":"","googleName":"慶誠宮-天上聖母","address":"621台灣嘉義縣民雄鄉中樂路64號","gps":{"lat":23.5566423,"lng":120.4295501}},{"county":"嘉義縣","location":"水上鄉","name":"璿宿上天宮","year":"清乾隆二年(西元1737年)","regularYear":"1737","note":"","googleName":"璿宿上天宮","address":"608台灣嘉義縣水上鄉中和路233號","gps":{"lat":23.4300579,"lng":120.398572}},{"county":"嘉義縣","location":"布袋鎮","name":"魍港太聖宮","year":"民國六十一年（1972年）","regularYear":"1972","note":"宮內奉祀為臺灣第一尊榮獲行政院教育部鑑定為明末雕刻作品的媽祖聖像－魍港媽祖[56]","googleName":"魍港太聖宮","address":"625台灣嘉義縣布袋鎮虎尾寮132號","gps":{"lat":23.3384063,"lng":120.13831}},{"county":"嘉義縣","location":"布袋鎮","name":"新吉庄聖天宮","year":"清治治乾隆十五年（1750年）","regularYear":"1750","note":"","googleName":"布袋新吉庄聖天宮","address":"625台灣嘉義縣布袋鎮菜舖里","gps":{"lat":23.3944972,"lng":120.2189094}},{"county":"嘉義縣","location":"東石鄉","name":"港口宮","year":"清治康熙二十三年（1684年）","regularYear":"1684","note":"","googleName":"笨港口港口宮","address":"614台灣嘉義縣東石鄉港口村5號","gps":{"lat":23.4956004,"lng":120.1858414}},{"county":"嘉義縣","location":"太保市","name":"後潭鎮福宮[57]","year":"創建於清康熙四十年五月）","regularYear":"","note":"縣定古蹟","googleName":"鎮福宮","address":"612台灣嘉義縣太保市後潭470號","gps":{"lat":23.4445667,"lng":120.3412821}},{"county":"嘉義縣","location":"朴子市","name":"朴子配天宮","year":"清康熙二十六年（1687年）","regularYear":"1687","note":"縣定古蹟","googleName":"配天宮","address":"613台灣嘉義縣朴子市開元路118號","gps":{"lat":23.4677754,"lng":120.2452259}},{"county":"嘉義縣","location":"新港鄉","name":"長天宮","year":"清治雍正十二年（1734年）","regularYear":"1734","note":"","googleName":"笨港長天宮管理委員會","address":"616台灣嘉義縣新港鄉","gps":{"lat":23.5686414,"lng":120.3190457}},{"county":"嘉義縣","location":"新港鄉","name":"奉天宮","year":"清治嘉慶十六年（1811年）","regularYear":"1811","note":"縣定古蹟","googleName":"新港奉天宮","address":"616台灣嘉義縣新港鄉新民路53號","gps":{"lat":23.5565065,"lng":120.3479035}},{"county":"嘉義縣","location":"新港鄉","name":"溪北六興宮","year":"清治道光十九年（1839年）","regularYear":"1839","note":"縣定古蹟","googleName":"六興宮","address":"616台灣嘉義縣新港鄉溪北村65號","gps":{"lat":23.510558,"lng":120.3364113}},{"county":"嘉義縣","location":"新港鄉","name":"笨港天后宮","year":"清治康熙五十二年（1713年）創建，日治明治三十年（1897年）地震廟毀，民國九十一年（2002年）大殿入火，民國一百年（2011年）重建竣工[58][59][60]。","regularYear":"1713","note":"","googleName":"笨港天后宮","address":"616台灣嘉義縣新港鄉159縣道151號","gps":{"lat":23.5616383,"lng":120.308286}},{"county":"嘉義縣","location":"六腳鄉","name":"護安宮","year":"清治光緒五年（1879年）","regularYear":"1879","note":"","googleName":"護安宮","address":"615台灣嘉義縣六腳鄉","gps":{"lat":23.491954,"lng":120.2969684}},{"county":"臺南市","location":"南化區","name":"天后宮[62]","year":"清治康熙三十七年（1698年）","regularYear":"1698","note":"","googleName":"南化天后宮","address":"716台灣南化區","gps":{"lat":23.0439279,"lng":120.4762067}},{"county":"臺南市","location":"永康區","name":"鹽行天后宮","year":"清康熙三十五年（1696年）","regularYear":"1696","note":"","googleName":"鹽行天后宮","address":"710台灣台南市永康區中正南路690號","gps":{"lat":23.0393728,"lng":120.2356299}},{"county":"臺南市","location":"後壁區","name":"下茄苳泰安宮","year":"清治康熙二十三年（1684年）","regularYear":"1684","note":"","googleName":"泰安宮","address":"731台灣台南市後壁區下茄苳4號","gps":{"lat":23.3531249,"lng":120.3689645}},{"county":"臺南市","location":"善化區","name":"善化慶安宮","year":"清治嘉慶十五年（1810年）","regularYear":"1810","note":"直轄市定古蹟","googleName":"善化慶安宮","address":"741台灣台南市善化區中山路470號","gps":{"lat":23.1328609,"lng":120.2900072}},{"county":"臺南市","location":"善化區","name":"茄拔天后宮","year":"明鄭永曆十五年（1661年）","regularYear":"1661","note":"","googleName":"茄拔天后宮","address":"741台灣台南市善化區嘉南里80號","gps":{"lat":23.135318,"lng":120.326869}},{"county":"臺南市","location":"下營區","name":"茅港尾堡天后宮[63]","year":"清治康熙五十二年（1713年）[64]","regularYear":"1713","note":"","googleName":"茅港尾天后宮","address":"台灣台南市下營區茅港尾163號","gps":{"lat":23.2167119,"lng":120.28289}},{"county":"臺南市","location":"山上區","name":"苦瓜寮朝天宮","year":"清治光緒十九年（1893年）","regularYear":"1893","note":"","googleName":"苦瓜寮朝天宮","address":"743台灣台南市山上區明和里11鄰苦瓜寮157號","gps":{"lat":23.1053987,"lng":120.348967}},{"county":"臺南市","location":"山上區","name":"天后宮","year":"清光緒六年（1879年）","regularYear":"1879","note":"","googleName":"天后宮","address":"743台灣台南市山上區山上里121號","gps":{"lat":23.1028344,"lng":120.3580011}},{"county":"臺南市","location":"麻豆區","name":"仁厚宮","year":"清治乾隆二十三年（1758年）","regularYear":"1758","note":"","googleName":"麻豆油車仁厚宮","address":"721台灣台南市麻豆區新生北路47號","gps":{"lat":23.1906688,"lng":120.2443232}},{"county":"臺南市","location":"鹽水區","name":"月港護庇宮","year":"護庇宮原本是福德祠，建於明天啟元年（1621年）清治康熙五十五年（1716年）擇地重建天后宮(護庇宮)","regularYear":"1621","note":"明天啟3年(1623)，鹽水當地糖郊「崇興行」從大陸福建湄州朝天閣迎來一尊媽祖(即今所奉祀的開基三媽，又稱糖郊媽)，併入福德祠合祀，並改為媽祖祠。","googleName":"護庇宮","address":"737台灣台南市鹽水區中正路140號","gps":{"lat":23.3180627,"lng":120.2672197}},{"county":"臺南市","location":"新營區","name":"鐵線橋通濟宮","year":"大清康熙中葉","regularYear":"","note":"","googleName":"鐵線橋通濟宮","address":"730台灣台南市新營區鐵線里4鄰42號","gps":{"lat":23.264639,"lng":120.2766215}},{"county":"臺南市","location":"西港區","name":"玉勅慶安宮","year":"清康熙五十一年（1712年）","regularYear":"1712","note":"","googleName":"西港慶安宮","address":"723台灣台南市西港區慶安路32號","gps":{"lat":23.1212536,"lng":120.2019343}},{"county":"臺南市","location":"七股區","name":"三股龍德宮","year":"清光緒六年（1880年）","regularYear":"1880","note":"","googleName":"龍德宮","address":"724台灣台南市七股區三股里3鄰三股38號","gps":{"lat":23.0992506,"lng":120.1181678}},{"county":"臺南市","location":"中西區","name":"大天后宮","year":"明鄭永曆十八年（1664年）","regularYear":"1664","note":"國定古蹟","googleName":"大天后宮","address":"700台灣台南市中西區永福路二段227巷18號","gps":{"lat":22.9966165,"lng":120.201544}},{"county":"臺南市","location":"中西區","name":"媽祖樓天后宮","year":"清治乾隆二十年（1755年）","regularYear":"1755","note":"","googleName":"媽祖樓天后宮","address":"700台灣台南市中西區忠孝街118號","gps":{"lat":23.0005415,"lng":120.1976134}},{"county":"臺南市","location":"中西區","name":"三郊鎮港海安宮","year":"清治乾隆五十三年（1788年）[註 4]","regularYear":"1788","note":"","googleName":"三郊鎮港海安宮","address":"700台灣台南市中西區金華路四段44巷31號","gps":{"lat":22.997326,"lng":120.1950092}},{"county":"臺南市","location":"中西區","name":"四聯境金安宮","year":"清治嘉慶十四年（1809年）[65]","regularYear":"1809","note":"","googleName":"四聯境金安宮","address":"700台灣台南市中西區信義街108巷61號","gps":{"lat":23.0013193,"lng":120.1951594}},{"county":"臺南市","location":"中西區","name":"三郊營仔腳朝興宮溫陵媽廟","year":"清治嘉慶二十二年（1817年）[66]","regularYear":"1817","note":"分靈自泉州天后宮，因泉州古稱溫陵，故名為「溫陵媽廟」。民國四十六年（1957年）遷至現址。","googleName":"三郊營仔腳朝興宮溫陵廟","address":"700台灣台南市中西區濟生街64巷1號","gps":{"lat":22.9979392,"lng":120.1903802}},{"county":"臺南市","location":"中西區","name":"銀同祖廟","year":"清治道光二十二年（1842年）[67]","regularYear":"1842","note":"","googleName":"銀同祖廟","address":"700台灣台南市中西區城隍街45號","gps":{"lat":22.9901667,"lng":120.2081436}},{"county":"臺南市","location":"中西區","name":"檨仔林朝興宮馬兵營保和宮","year":"清治咸豐八年（1858年）[68]","regularYear":"1858","note":"","googleName":"八吉境檨仔林朝興宮保和宮","address":"700台灣台南市中西區中正路53巷12號","gps":{"lat":22.9912873,"lng":120.2019521}},{"county":"臺南市","location":"北區","name":"開基天后宮","year":"明鄭永曆十七年（1663年）","regularYear":"1663","note":"直轄市定古蹟","googleName":"開基天后宮","address":"704台灣台南市北區自強街12號","gps":{"lat":22.9995266,"lng":120.2027196}},{"county":"臺南市","location":"南區","name":"鹽埕天后宮","year":"清乾隆廿三年（1758年）或卅三年（1768年）","regularYear":"1758","note":"主祀天上聖母，配祀武惠尊王，過去附近居民常經由廟後的「帆港」將鹽場產出的鹽運往安平，故此廟亦稱為「帆港天后宮」。該廟為台南鹽埕地區的公廟","googleName":"南區鹽埕天后宮-天上聖母","address":"702台灣台南市南區鹽埕路291巷15號","gps":{"lat":22.9712558,"lng":120.1894564}},{"county":"臺南市","location":"安南區","name":"正統鹿耳門聖母廟","year":"1918年[69]","regularYear":"1918","note":"土城香亦稱土城仔香，由祀奉天上聖母媽祖的土城聖母廟所舉行。正統鹿耳門聖母廟舊名保安宮，早期屬「西港香」刈香。民國五十年（西元1961年），自西港香脫離而自行辦理的刈香活動，乃五大香中最晚形成的地區。「南瀛五大香」中的「土城香」，每三年舉行一次刈香儀式[70][71]。","googleName":"正統鹿耳門聖母廟","address":"70958台灣台南市安南區城安路160號","gps":{"lat":23.0677233,"lng":120.1274823}},{"county":"臺南市","location":"安南區","name":"鹿耳門天后宮[72]","year":"1947年","regularYear":"1947","note":"","googleName":"鹿耳門天后宮","address":"709台灣台南市安南區媽祖宮一街136號","gps":{"lat":23.037424,"lng":120.124428}},{"county":"臺南市","location":"安平區","name":"安平天后宮","year":"清治康熙五年（1668年）","regularYear":"1668","note":"","googleName":"安平開臺天后宮","address":"708台灣台南市安平區國勝路33號","gps":{"lat":23.0006165,"lng":120.1606886}},{"county":"臺南市","location":"大內區","name":"內庄朝天宮","year":"民國101年（2012年）","regularYear":"2012","note":"","googleName":"內庄朝天宮","address":"742台灣台南市大內區大內里110號","gps":{"lat":23.1174463,"lng":120.362731}},{"county":"高雄市","location":"旗津區","name":"旗津天后宮","year":"清治康熙十二年（1673年）","regularYear":"1673","note":"直轄市定古蹟","googleName":"旗津天后宮","address":"805台灣高雄市旗津區廟前路95號","gps":{"lat":22.613377,"lng":120.268426}},{"county":"高雄市","location":"楠梓區","name":"楠梓天后宮（原稱楠和宮）[73]","year":"清治乾隆二十九年（1764年）","regularYear":"1764","note":"直轄市定古蹟","googleName":"楠梓天后宮","address":"811台灣高雄市楠梓區楠梓路1號","gps":{"lat":22.7279245,"lng":120.3300538}},{"county":"高雄市","location":"旗山區","name":"天后宮","year":"清治嘉慶二十一年（1816年）","regularYear":"1816","note":"直轄市定古蹟","googleName":"旗山天后宮","address":"842台灣高雄市旗山區永福街23巷16號","gps":{"lat":22.886622,"lng":120.4823053}},{"county":"高雄市","location":"燕巢區","name":"角宿天后宮","year":"清治康熙六年（1667年）","regularYear":"1667","note":"","googleName":"天后宮","address":"824台灣高雄市燕巢區角宿里角宿路6之1號","gps":{"lat":22.7707143,"lng":120.3600066}},{"county":"高雄市","location":"鳳山區","name":"龍成宮","year":"清治光緒十二年（1886年）","regularYear":"1886","note":"","googleName":"五甲龍成宮","address":"830台灣高雄市鳳山區五甲二路730巷6號","gps":{"lat":22.5945448,"lng":120.3287577}},{"county":"高雄市","location":"鼓山區","name":"內惟龍目井龍泉宮","year":"清治朝乾隆年間","regularYear":"","note":"","googleName":"內惟龍目井龍泉宮 (鳳邑舊城十三角落)","address":"804台灣高雄市鼓山區青泉街106號","gps":{"lat":22.6529117,"lng":120.2736579}},{"county":"高雄市","location":"左營區","name":"豐穀宮","year":"大正十三年（1924年）","regularYear":"1924","note":"民國初年北港朝天宮南巡至左營時，正三媽降駕指示要留在左營濟世，於是便留下正三媽令旗，之後左營庄信徒雕刻天上聖母金身，原令旗火化後入神其中，而此尊神像即是豐穀宮開基天上聖母","googleName":"菜公豐谷宮","address":"813台灣高雄市左營區菜公一路91號","gps":{"lat":22.6773305,"lng":120.3157028}},{"county":"高雄市","location":"茄萣區","name":"下茄萣金鑾宮","year":"清治乾隆四十二年（1777年）","regularYear":"1777","note":"","googleName":"金鑾宮","address":"852台灣高雄市茄萣區港東街111號","gps":{"lat":22.895115,"lng":120.1836464}},{"county":"高雄市","location":"茄萣區","name":"頂茄萣賜福宮[74]","year":"清治乾隆二十三年（1758年）[75]","regularYear":"1758","note":"","googleName":"賜福宮","address":"852台灣高雄市茄萣區茄萣路二段57號","gps":{"lat":22.898609,"lng":120.182908}},{"county":"高雄市","location":"橋頭區","name":"鳳橋宮","year":"清治雍正三年（1725年）","regularYear":"1725","note":"","googleName":"橋頭鳳橋宮-天上聖母","address":"82548台灣高雄市橋頭區橋頭路95號","gps":{"lat":22.7579558,"lng":120.3109752}},{"county":"屏東縣","location":"屏東市","name":"慈鳳宮","year":"清治乾隆二年（1737年）","regularYear":"1737","note":"","googleName":"屏東慈鳳宮","address":"900台灣屏東縣屏東市中山路39號","gps":{"lat":22.670943,"lng":120.4862514}},{"county":"屏東縣","location":"里港鄉","name":"雙慈宮","year":"清治乾隆十三年（1784年）[76]","regularYear":"1784","note":"","googleName":"里港雙慈宮","address":"905台灣屏東縣里港鄉大平路50號","gps":{"lat":22.7784527,"lng":120.4932997}},{"county":"屏東縣","location":"新園鄉","name":"新惠宮","year":"清治乾隆20年（1755年）","regularYear":"1755","note":"","googleName":"新園新惠宮","address":"932台灣屏東縣新園鄉平和路250號","gps":{"lat":22.527069,"lng":120.452784}},{"county":"屏東縣","location":"內埔鄉","name":"六堆天后宮","year":"清治嘉慶八年（1803年）","regularYear":"1803","note":"縣定古蹟","googleName":"內埔天后宮","address":"912台灣屏東縣內埔鄉廣濟路164號","gps":{"lat":22.6152433,"lng":120.56637}},{"county":"屏東縣","location":"東港鎮","name":"朝隆宮","year":"清治雍正二年（1724年）","regularYear":"1724","note":"","googleName":"下中街朝隆宮天上聖母蝦米媽","address":"928台灣屏東縣東港鎮延平路108號","gps":{"lat":22.4669404,"lng":120.4479962}},{"county":"屏東縣","location":"萬丹鄉","name":"萬丹萬惠宮","year":"清治乾隆二十一年（1756年）","regularYear":"1756","note":"","googleName":"萬丹萬惠宮","address":"913台灣屏東縣萬丹鄉萬新路1660號","gps":{"lat":22.5838159,"lng":120.489207}},{"county":"屏東縣","location":"長治鄉","name":"長治天后宮","year":"日治大正三年（1914年）","regularYear":"1914","note":"","googleName":"天后宮","address":"900台灣屏東縣屏東市長興路","gps":{"lat":22.682067,"lng":120.5110113}},{"county":"宜蘭縣","location":"蘇澳鎮","name":"南天宮","year":"民國三十九年（1950年）","regularYear":"1950","note":"","googleName":"南天宮","address":"270台灣宜蘭縣蘇澳鎮江夏路17號","gps":{"lat":24.581883,"lng":121.86495}},{"county":"宜蘭縣","location":"蘇澳鎮","name":"進安宮","year":"民國七十七年（1988年）","regularYear":"1988","note":"","googleName":"南方澳進安宮","address":"27042台灣宜蘭縣蘇澳鎮江夏路81號","gps":{"lat":24.5842061,"lng":121.8645144}},{"county":"宜蘭縣","location":"五結鄉","name":"永安宮","year":"清治道光六年（1826年）","regularYear":"1826","note":"縣定古蹟","googleName":"利澤簡永安宮天上聖母","address":"26841台灣宜蘭縣五結鄉利澤路26號","gps":{"lat":24.666626,"lng":121.8231929}},{"county":"宜蘭縣","location":"頭城鎮","name":"頭城慶元宮","year":"清治嘉慶元年（1796年）","regularYear":"1796","note":"","googleName":"慶元宮","address":"261台灣宜蘭縣頭城鎮和平街105號","gps":{"lat":24.8572029,"lng":121.8241731}},{"county":"宜蘭縣","location":"宜蘭市","name":"昭應宮","year":"清治嘉慶十三年（1808年）","regularYear":"1808","note":"縣定古蹟","googleName":"昭應宮","address":"260台灣宜蘭縣宜蘭市中山路三段106號","gps":{"lat":24.7576583,"lng":121.7527182}},{"county":"宜蘭縣","location":"羅東鎮","name":"震安宮","year":"清治道光十七年（1837年）[77]","regularYear":"1837","note":"","googleName":"羅東震安宮","address":"265台灣宜蘭縣羅東鎮中正路35號","gps":{"lat":24.673552,"lng":121.7705121}},{"county":"花蓮縣","location":"花蓮市","name":"慈天宮","year":"民國三十八年（1949年）","regularYear":"1949","note":"","googleName":"慈天宮管理委員會","address":"970台灣花蓮縣花蓮市忠孝街81號","gps":{"lat":23.9751456,"lng":121.605613}},{"county":"台東縣","location":"台東市","name":"台東天后宮","year":"清治光緒十六年（1890年）","regularYear":"1890","note":"縣定古蹟","googleName":"台東天后宮","address":"950台灣台東縣台東市中華路一段222號","gps":{"lat":22.7571877,"lng":121.1550622}},{"county":"澎湖縣","location":"馬公市","name":"澎湖天后宮","year":"明萬曆三十二年（1604年）","regularYear":"1604","note":"國定古蹟，為全台年代最早的天后宮。具有潮州風格，異於大多數臺灣寺廟的閩南風格。","googleName":"澎湖天后宮","address":"880台灣澎湖縣馬公市正義街1號","gps":{"lat":23.564694,"lng":119.564039}},{"county":"金門縣","location":"金湖鎮","name":"順濟宮","year":"北宋徽宗宣和年","regularYear":"","note":"料羅順濟宮興建於明代，從廟中碑文記載，建廟時間要往古推算到北宋徽宗宣和年間，是金門最古老的媽祖廟。","googleName":"順濟宮","address":"891金門縣金湖鎮","gps":{"lat":24.4195643,"lng":118.434539}},{"county":"連江縣","location":"南竿鄉","name":"馬祖天后宮","year":"","regularYear":"","note":"為媽祖衣冠冢和靈穴的所在地。","googleName":"馬祖境天后宮天上聖母","address":"連江縣南竿鄉","gps":{"lat":26.158251,"lng":119.918152}},{"county":"連江縣","location":"南竿鄉","name":"鐵板天后宮","year":"","regularYear":"","note":"供奉國內罕見之「少女媽祖」(少女面容)神像。","googleName":"鐵板","address":"連江縣南竿鄉","gps":{"lat":26.1431815,"lng":119.9227113}}]}